ne_id,iso_a2,state,city,lat,lon
1159307647,AE,Abu Dhabi,Abu Dhabi,24.4781,54.3686
1159307647,AE,Abu Dhabi,Al ‘Ayn,24.2075,55.7447
1159308407,AE,Dubay,Dubay,25.2697,55.3094
1159307651,CH,Genève,Geneva,46.2,6.15
1159307653,CH,Jura,Delémont,47.3653,7.3472
1159307655,CH,Neuchâtel,La Chaux-de-Fonds,47.0996,6.8296
1159307657,CH,Aargau,Rheinfelden (Baden),47.5611,7.7917
1159307659,CH,Lucerne,Lucerne,47.0523,8.3059
1159307661,CH,Nidwalden,Stans,46.9594,8.3667
1159307663,CH,Valais,Sion,46.2304,7.3661
1159307665,CH,Appenzell Ausserrhoden,Herisau,47.3851,9.2786
1159307669,CH,Sankt Gallen,Sankt Gallen,47.4233,9.3772
1159307671,CH,Ticino,Lugano,46.0103,8.9625
1159307673,CH,Glarus,Glarus,47.0333,9.0667
1159307675,CH,Graubünden,Chur,46.8521,9.5297
1159307677,CH,Schaffhausen,Schaffhausen,47.6965,8.6339
1159307679,CH,Schwyz,Freienbach,47.2047,8.7578
1159307681,CH,Thurgau,Frauenfeld,47.558,8.8964
1159307683,CH,Uri,Altdorf,46.8806,8.6394
1159307687,CH,Zürich,Zürich,47.3786,8.54
1159307687,CH,Zürich,Winterthur,47.4992,8.7267
1159307689,CH,Zug,Zug,47.1681,8.5169
1159307691,RO,Dolj,Craiova,44.3333,23.8167
1159307693,RO,Gorj,Târgu Jiu,45.0342,23.2747
1159307695,RO,Mehedinti,Drobeta-Turnu Severin,44.6361,22.6556
1159307697,RO,Olt,Slatina,44.4297,24.3642
1159307699,RO,Teleorman,Alexandria,43.9686,25.3333
1159307701,RO,Bucharest,Bucharest,44.4277,26.103
1159307705,RO,Calarasi,Călăraşi,44.2,27.3333
1159307707,RO,Dâmbovita,Târgovişte,44.9244,25.4572
1159307709,RO,Giurgiu,Giurgiu,43.9,25.9667
1159307711,RO,Ialomita,Slobozia,44.5639,27.3661
1159307713,RO,Constanta,Constanţa,44.1733,28.6383
1159307715,CA,Nunavut,Iqaluit,63.7598,-68.5107
1159307717,CA,British Columbia,Vancouver,49.25,-123.1
1159307717,CA,British Columbia,Surrey,49.19,-122.8489
1159307717,CA,British Columbia,Victoria,48.4283,-123.3647
1159307717,CA,British Columbia,Burnaby,49.2667,-122.9667
1159307717,CA,British Columbia,Richmond,49.1667,-123.1333
1159307717,CA,British Columbia,Kelowna,49.8881,-119.4956
1159307717,CA,British Columbia,Abbotsford,49.05,-122.3167
1159307717,CA,British Columbia,Coquitlam,49.2839,-122.7919
1159307717,CA,British Columbia,Langley,49.1044,-122.5827
1159307717,CA,British Columbia,Saanich,48.484,-123.381
1159307717,CA,British Columbia,Delta,49.0847,-123.0586
1159307717,CA,British Columbia,Kamloops,50.6761,-120.3408
1159307719,NZ,Waikato,Hamilton,-37.7833,175.2833
1159307723,NZ,Wellington,Wellington,-41.2889,174.7772
1159307723,NZ,Wellington,Lower Hutt,-41.2167,174.9167
1159307725,UY,Colonia,Colonia del Sacramento,-34.4714,-57.8442
1159307727,UY,San José,San José,-34.3333,-56.7167
1159307729,UY,Artigas,Artigas,-30.4667,-56.4667
1159307731,UY,Flores,Trinidad,-33.5333,-56.8833
1159307733,UY,Paysandú,Paysandú,-32.32,-58.0756
1159307735,UY,Río Negro,Fray Bentos,-33.1333,-58.3
1159307737,UY,Salto,Salto,-31.3883,-57.9606
1159307741,UY,Soriano,Mercedes,-33.25,-58.0319
1159307743,UY,Cerro Largo,Melo,-32.3595,-54.18
1159307745,UY,Durazno,Durazno,-33.3833,-56.5167
1159307747,UY,Rivera,Rivera,-30.9025,-55.5506
1159307749,UY,Tacuarembó,Tacuarembó,-31.71,-55.98
1159307751,UY,Treinta y Tres,Treinta y Tres,-33.2308,-54.3822
1159307753,UY,Canelones,Ciudad de la Costa,-34.8167,-55.95
1159307755,UY,Florida,Florida,-34.1,-56.2167
1159307759,UY,Lavalleja,Minas,-34.3667,-55.2333
1159307761,UY,Maldonado,Maldonado,-34.91,-54.96
1159307763,UY,Montevideo,Montevideo,-34.8667,-56.1667
1159307765,UY,Rocha,Rocha,-34.4833,-54.35
1159307767,SZ,Hhohho,Mbabane,-26.3208,31.1617
1159307769,SZ,Lubombo,Mhlume,-26.0333,31.85
1159307771,SZ,Manzini,Manzini,-26.4833,31.3667
1159307773,SZ,Shiselweni,Hlatikulu,-26.9667,31.3167
1159307777,BR,Rio de Janeiro,Rio de Janeiro,-22.9083,-43.1964
1159307777,BR,Rio de Janeiro,São Gonçalo,-22.8269,-43.0539
1159307777,BR,Rio de Janeiro,Iguaçu,-22.74,-43.47
1159307777,BR,Rio de Janeiro,Niterói,-22.8833,-43.1036
1159307777,BR,Rio de Janeiro,Campos,-21.7523,-41.3304
1159307777,BR,Rio de Janeiro,Petrópolis,-22.505,-43.1789
1159307777,BR,Rio de Janeiro,Volta Redonda,-22.5231,-44.1042
1159307777,BR,Rio de Janeiro,Magé,-22.6528,-43.0408
1159307777,BR,Rio de Janeiro,Itaboraí,-22.7475,-42.8558
1159307777,BR,Rio de Janeiro,Macaé,-22.3708,-41.7869
1159307777,BR,Rio de Janeiro,Cabo Frio,-22.8789,-42.0189
1159307777,BR,Rio de Janeiro,Nova Friburgo,-22.2819,-42.5308
1159307777,BR,Rio de Janeiro,Angra dos Reis,-23.001003636363631,-44.3011709090909
1159307777,BR,Rio de Janeiro,Teresópolis,-22.4119,-42.9658
1159307777,BR,Rio de Janeiro,Barra Mansa,-22.5439,-44.1708
1159307777,BR,Rio de Janeiro,Rio das Ostras,-22.518524999999993,-41.949849999999991
1159307777,BR,Rio de Janeiro,Araruama,-22.8728,-42.3428
1159307777,BR,Rio de Janeiro,Resende,-22.4689,-44.4469
1159307777,BR,Rio de Janeiro,Itaperuna,-21.205,-41.8878
1159307779,PY,Concepción,Concepción,-23.4025,-57.4414
1159307781,PY,Cordillera,Tobatí,-25.26,-57.0814
1159307783,PY,Presidente Hayes,Villa Hayes,-25.09,-57.53
1159307785,PY,San Pedro,San Pedro de Ycuamandiyú,-24.1,-57.0833
1159307787,PY,Asunción,Asunción,-25.3,-57.6333
1159307789,PY,Guairá,Villarrica,-25.75,-56.4333
1159307791,PY,Misiones,San Ignacio,-26.8867,-57.0283
1159307795,PY,Ñeembucú,Pilar,-26.8569,-58.3039
1159307797,PY,Paraguarí,Yaguarón,-25.5621,-57.284
1159307799,PY,Amambay,Pedro Juan Caballero,-22.559284,-55.740836
1159307801,PY,Alto Paraná,Ciudad del Este,-25.5167,-54.6167
1159307803,PY,Caaguazú,Coronel Oviedo,-25.45,-56.44
1159307805,PY,Caazapá,Caazapá,-26.2,-56.38
1159307807,PY,Canindeyú,Salto del Guairá,-24.02,-54.34
1159307809,PY,Itapúa,Encarnación,-27.3333,-55.8667
1159307813,PY,Alto Paraguay,Puerto Casado,-22.2896,-57.94
1159307815,PY,Boquerón,Filadelfia,-22.3333,-60.0167
1159307817,ZW,Mashonaland Central,Bindura,-17.3,31.3333
1159307819,ZW,Harare,Harare,-17.8292,31.0522
1159307819,ZW,Harare,Chitungwiza,-18.0,31.1
1159307821,ZW,Matabeleland North,Hwange,-18.3647,26.5
1159307823,ZW,Midlands,Gweru,-19.458,29.82
1159307825,ZW,Mashonaland East,Marondera,-18.1833,31.55
1159307827,ZW,Manicaland,Mutare,-18.9728,32.6694
1159307831,ZW,Matabeleland South,Beitbridge,-22.2167,30.0
1159307833,ZW,Bulawayo,Bulawayo,-20.1667,28.5667
1159307835,ZW,Masvingo,Masvingo,-20.0744,30.8328
1159307837,ZW,Mashonaland West,Kadoma,-18.35,29.9167
1159307839,PF,Windward Islands,Papeete,-17.5334,-149.5667
1159307841,BR,Bahia,Salvador,-12.9708,-38.5108
1159307841,BR,Bahia,Feira de Santana,-12.2669,-38.9669
1159307841,BR,Bahia,Vitória da Conquista,-14.8661,-40.8394
1159307841,BR,Bahia,Camaçari,-12.6978,-38.3239
1159307841,BR,Bahia,Juazeiro,-9.4139,-40.5028
1159307841,BR,Bahia,Itabuna,-14.7858,-39.28
1159307841,BR,Bahia,Ilhéus,-14.7889,-39.0489
1159307841,BR,Bahia,Jequié,-13.8578,-40.0839
1159307841,BR,Bahia,Teixeira de Freitas,-17.535,-39.7419
1159307841,BR,Bahia,Barreiras,-12.1528,-44.99
1159307841,BR,Bahia,Pôrto Seguro,-16.45,-39.065
1159307841,BR,Bahia,Alagoinhas,-12.1356,-38.4192
1159307841,BR,Bahia,Paulo Afonso,-9.4078,-38.2219
1159307841,BR,Bahia,Euriápolis,-16.3778,-39.58
1159307841,BR,Bahia,Santo Antônio de Jesus,-12.9692,-39.2611
1159307849,TL,Dili,Dili,-8.5586,125.5736
1159307851,TL,Liquica,Liquiçá,-8.5935,125.3273
1159307853,TL,Aileu,Aileu,-8.7281,125.5664
1159307855,TL,Ainaro,Ainaro,-8.9833,125.5
1159307857,TL,Baucau,Baucau,-8.4667,126.45
1159307859,TL,Bobonaro,Maliana,-8.9917,125.2197
1159307861,TL,Cova Lima,Suai,-9.3129,125.2565
1159307863,TL,Ermera,Gleno,-8.7239,125.4361
1159307867,TL,Manatuto,Manatuto,-8.5167,126.0167
1159307869,TL,Manufahi,Same,-9.0,125.65
1159307871,TL,Viqueque,Viqueque,-8.85,126.3667
1159307873,TL,Lautém,Lospalos,-8.5167,127.0333
1159307875,ID,Maluku,Ambon,-3.705,128.17
1159307877,ZM,Luapula,Kashikishi,-9.3172,28.7331
1159307877,ZM,Luapula,Nchelenge,-9.3467,28.7344
1159307877,ZM,Luapula,Mansa,-11.1822,28.8833
1159307879,ZM,Northern,Kasama,-10.1996,31.1799
1159307881,ZM,Central,Kabwe,-14.4333,28.45
1159307885,ZM,Copperbelt,Ndola,-12.9683,28.6337
1159307885,ZM,Copperbelt,Kitwe,-12.8208,28.2119
1159307885,ZM,Copperbelt,Chingola,-12.5447,27.8708
1159307885,ZM,Copperbelt,Mufulira,-12.5546,28.2604
1159307885,ZM,Copperbelt,Luanshya,-13.1333,28.4
1159307887,ZM,Eastern,Chipata,-13.6386,32.6453
1159307889,ZM,Lusaka,Lusaka,-15.4167,28.2833
1159307891,ZM,North-Western,Solwezi,-12.1833,26.4
1159307893,ZM,Southern,Mazabuka,-15.8667,27.7667
1159307893,ZM,Southern,Livingstone,-17.85,25.8667
1159307895,ZM,Western,Mongu,-15.2796,23.12
1159307897,PE,Piura,Piura,-5.2008,-80.6253
1159307897,PE,Piura,Sullana,-4.9039,-80.6853
1159307897,PE,Piura,Talara,-4.5833,-81.2667
1159307899,ID,Yogyakarta,Yogyakarta,-7.8014,110.3644
1159307903,ID,Sumatera Barat,Padang,-0.9556,100.3606
1159307903,ID,Sumatera Barat,Payakumbuh,-0.2244,100.6325
1159307903,ID,Sumatera Barat,Bukittinggi,-0.3097,100.3753
1159307905,BR,Mato Grosso do Sul,Campo Grande,-20.4686,-54.6222
1159307905,BR,Mato Grosso do Sul,Dourados,-22.2208,-54.8058
1159307905,BR,Mato Grosso do Sul,Corumbá,-19.0089,-57.6528
1159307907,BR,Minas Gerais,Belo Horizonte,-19.9281,-43.9419
1159307907,BR,Minas Gerais,Abaeté,-19.1583,-45.4522
1159307907,BR,Minas Gerais,Uberlândia,-18.9189,-48.2769
1159307907,BR,Minas Gerais,Contagem,-19.9319,-44.0539
1159307907,BR,Minas Gerais,Juiz de Fora,-21.7642,-43.3503
1159307907,BR,Minas Gerais,Betim,-19.9678,-44.1978
1159307907,BR,Minas Gerais,Montes Claros,-16.7322,-43.8636
1159307907,BR,Minas Gerais,Uberaba,-19.7478,-47.9319
1159307907,BR,Minas Gerais,Ribeirão das Neves,-19.7669,-44.0869
1159307907,BR,Minas Gerais,Governador Valadares,-18.8508,-41.9489
1159307907,BR,Minas Gerais,Ipatinga,-19.4678,-42.5369
1159307907,BR,Minas Gerais,Sete Lagoas,-19.4658,-44.2469
1159307907,BR,Minas Gerais,Divinópolis,-20.1389,-44.8839
1159307907,BR,Minas Gerais,Ibirité,-20.0219,-44.0589
1159307907,BR,Minas Gerais,Poços de Caldas,-21.7878,-46.5608
1159307907,BR,Minas Gerais,Patos de Minas,-18.5871,-46.5149
1159307907,BR,Minas Gerais,Teófilo Otoni,-17.8578,-41.505
1159307907,BR,Minas Gerais,Barbacena,-21.2258,-43.7739
1159307907,BR,Minas Gerais,Sabará,-19.8858,-43.8069
1159307907,BR,Minas Gerais,Pouso Alegre,-22.2281,-45.9336
1159307907,BR,Minas Gerais,Conselheiro Lafaiete,-20.66,-43.7858
1159307907,BR,Minas Gerais,Varginha,-21.5508,-45.43
1159307907,BR,Minas Gerais,Itabira,-19.6189,-43.2269
1159307907,BR,Minas Gerais,Araguari,-18.6489,-48.1869
1159307907,BR,Minas Gerais,Ubá,-21.12,-42.9428
1159307907,BR,Minas Gerais,Coronel Fabriciano,-19.5189,-42.6289
1159307907,BR,Minas Gerais,Muriaé,-21.1308,-42.3658
1159307907,BR,Minas Gerais,Itaúna,-20.075,-44.5758
1159307907,BR,Minas Gerais,Araxá,-19.5928,-46.9408
1159307907,BR,Minas Gerais,Passos,-20.7189,-46.61
1159307907,BR,Minas Gerais,Nova Serrana,-19.8758,-44.9839
1159307907,BR,Minas Gerais,Ituiutaba,-18.9689,-49.465
1159307907,BR,Minas Gerais,Lavras,-21.245,-45.0
1159307909,BR,Mato Grosso,Cuiabá,-15.5958,-56.0969
1159307909,BR,Mato Grosso,Várzea Grande,-15.65,-56.14
1159307909,BR,Mato Grosso,Rondonópolis,-16.4708,-54.6358
1159307909,BR,Mato Grosso,Sinop,-11.8639,-55.5039
1159307911,BR,Rio Grande do Sul,Porto Alegre,-30.0328,-51.23
1159307911,BR,Rio Grande do Sul,Caxias do Sul,-29.1678,-51.1789
1159307911,BR,Rio Grande do Sul,Canoas,-29.92,-51.18
1159307911,BR,Rio Grande do Sul,Pelotas,-31.7719,-52.3428
1159307911,BR,Rio Grande do Sul,Santa Maria,-29.6839,-53.8069
1159307911,BR,Rio Grande do Sul,Viamão,-30.0808,-51.0228
1159307911,BR,Rio Grande do Sul,Gravataí,-29.9433,-50.9939
1159307911,BR,Rio Grande do Sul,Novo Hamburgo,-29.6778,-51.1308
1159307911,BR,Rio Grande do Sul,São Leopoldo,-29.76,-51.1469
1159307911,BR,Rio Grande do Sul,Rio Grande,-32.035,-52.0989
1159307911,BR,Rio Grande do Sul,Alvorada,-29.99,-51.0839
1159307911,BR,Rio Grande do Sul,Passo Fundo,-28.2628,-52.4069
1159307911,BR,Rio Grande do Sul,Santa Cruz do Sul,-29.7178,-52.4258
1159307911,BR,Rio Grande do Sul,Uruguaiana,-29.755,-57.0878
1159307911,BR,Rio Grande do Sul,Bento Gonçalves,-29.1708,-51.5189
1159307911,BR,Rio Grande do Sul,Cachoeirinha,-29.9508,-51.0939
1159307911,BR,Rio Grande do Sul,Bagé,-31.3308,-54.1069
1159307911,BR,Rio Grande do Sul,Erechim,-27.6339,-52.2739
1159307913,BR,Paraná,Curitiba,-25.4297,-49.2719
1159307913,BR,Paraná,Londrina,-23.31,-51.1628
1159307913,BR,Paraná,Maringá,-23.425,-51.9389
1159307913,BR,Paraná,Ponta Grossa,-25.095,-50.1619
1159307913,BR,Paraná,São José dos Pinhais,-25.535,-49.2058
1159307913,BR,Paraná,Foz do Iguaçu,-25.54,-54.5875
1159307913,BR,Paraná,Cascavel,-24.9558,-53.4553
1159307913,BR,Paraná,Colombo,-25.2919,-49.2239
1159307913,BR,Paraná,Guarapuava,-25.395,-51.4578
1159307913,BR,Paraná,Araucária,-25.5928,-49.41
1159307913,BR,Paraná,Toledo,-24.7139,-53.7428
1159307913,BR,Paraná,Apucarana,-23.5508,-51.4608
1159307913,BR,Paraná,Campo Largo,-25.4589,-49.5278
1159307913,BR,Paraná,Arapongas,-23.4189,-51.4239
1159307913,BR,Paraná,Almirante Tamandaré,-25.325,-49.31
1159307913,BR,Paraná,Piraquara,-25.4419,-49.0628
1159307913,BR,Paraná,Umuarama,-23.7658,-53.325
1159307913,BR,Paraná,Cambé,-23.2758,-51.2778
1159307915,BR,Santa Catarina,Joinvile,-26.3039,-48.8458
1159307915,BR,Santa Catarina,Blumenau,-26.9189,-49.0658
1159307915,BR,Santa Catarina,Chapecó,-27.0958,-52.6178
1159307915,BR,Santa Catarina,Itajaí,-26.9078,-48.6619
1159307915,BR,Santa Catarina,Criciúma,-28.6775,-49.3697
1159307915,BR,Santa Catarina,Jaraguá do Sul,-26.4858,-49.0669
1159307915,BR,Santa Catarina,Lajes,-27.8158,-50.3258
1159307915,BR,Santa Catarina,Palhoça,-27.6444,-48.6678
1159307915,BR,Santa Catarina,Balneário de Camboriú,-26.9908,-48.635
1159307915,BR,Santa Catarina,Tubarão,-28.4669,-49.0069
1159307917,BR,Ceará,Fortaleza,-3.7275,-38.5275
1159307917,BR,Ceará,Caucaia,-3.7328,-38.6558
1159307917,BR,Ceará,Juazeiro do Norte,-7.2128,-39.315
1159307917,BR,Ceará,Crato,-7.2342,-39.4094
1159307917,BR,Ceará,Maracanaú,-3.8769,-38.6258
1159307917,BR,Ceará,Sobral,-3.6861,-40.3497
1159307917,BR,Ceará,Itapipoca,-3.4939,-39.5789
1159307917,BR,Ceará,Maranguape,-3.89,-38.6858
1159307921,BR,Piauí,Teresina,-5.0949,-42.8042
1159307921,BR,Piauí,Parnaíba,-2.905,-41.7769
1159307923,BR,Alagoas,Maceió,-9.6658,-35.735
1159307923,BR,Alagoas,Arapiraca,-9.7525,-36.6611
1159307925,BR,Tocantins,Palmas,-10.2128,-48.3603
1159307925,BR,Tocantins,Araguaína,-7.1908,-48.2069
1159307927,BR,Distrito Federal,Brasília,-15.7939,-47.8828
1159307929,BR,Espírito Santo,Serra,-20.1289,-40.3078
1159307929,BR,Espírito Santo,Vila Velha,-20.3364,-40.2936
1159307929,BR,Espírito Santo,Cariacica,-20.2639,-40.42
1159307929,BR,Espírito Santo,Vitória,-20.3322,-40.345
1159307929,BR,Espírito Santo,Cachoeiro de Itapemirim,-20.8489,-41.1128
1159307929,BR,Espírito Santo,Linhares,-19.3987,-40.0651
1159307929,BR,Espírito Santo,Guarapari,-20.6578,-40.5108
1159307929,BR,Espírito Santo,Colatina,-19.5389,-40.6308
1159307931,BR,Paraíba,João Pessoa,-7.12,-34.88
1159307931,BR,Paraíba,Campina Grande,-7.2306,-35.8811
1159307931,BR,Paraíba,Santa Rita,-7.1139,-34.9778
1159307931,BR,Paraíba,Patos,-7.0244,-37.28
1159307933,BR,Sergipe,Aracaju,-10.9111,-37.0717
1159307933,BR,Sergipe,Nossa Senhora do Socorro,-10.855,-37.1258
1159307935,BR,Maranhão,São Luís,-2.5325,-44.2963
1159307935,BR,Maranhão,Imperatriz,-5.5258,-47.4758
1159307935,BR,Maranhão,Timon,-5.0939,-42.8369
1159307935,BR,Maranhão,Caxias,-4.8589,-43.3558
1159307935,BR,Maranhão,Codó,-4.455,-43.8858
1159307935,BR,Maranhão,Açailandia,-4.9469,-47.505
1159307935,BR,Maranhão,Paço do Lumiar,-2.5319,-44.1078
1159307935,BR,Maranhão,Bacabal,-4.225,-44.78
1159307939,ID,Maluku Utara,Ternate,0.7833,127.3667
1159307941,BR,Pará,Belém,-1.4373,-48.4706
1159307941,BR,Pará,Ananindeua,-1.3658,-48.3719
1159307941,BR,Pará,Marabá,-5.3689,-49.1178
1159307941,BR,Pará,Santarém,-2.4431,-54.7083
1159307941,BR,Pará,Castanhal,-1.2969,-47.9219
1159307941,BR,Pará,Abaetetuba,-1.7178,-48.8828
1159307941,BR,Pará,Cametá,-2.2439,-49.4958
1159307941,BR,Pará,Barcarena Nova,-1.5058,-48.6258
1159307941,BR,Pará,Altamira,-3.2028,-52.2058
1159307941,BR,Pará,Tucuruí,-3.7678,-49.6728
1159307941,BR,Pará,Breves,-1.6819,-50.48
1159307941,BR,Pará,Itaituba,-4.2758,-55.9839
1159307943,KI,Kiribati,Tarawa,1.3382,173.0176
1159307945,ID,Riau,Pekanbaru,0.5333,101.45
1159307945,ID,Riau,Dumai,1.6667,101.45
1159307947,PE,Huánuco,Huánuco,-9.9294,-76.2397
1159307949,PE,La Libertad,Trujillo,-8.1119,-79.0289
1159307951,PE,Pasco,Cerro de Pasco,-10.6864,-76.2625
1159307953,PE,San Martín,Tarapoto,-6.4833,-76.3667
1159307957,PE,Ucayali,Pucallpa,-8.3833,-74.55
1159307959,PE,Amazonas,Bagua Grande,-5.7572,-78.4453
1159307961,PE,Loreto,Iquitos,-3.7333,-73.25
1159307963,PE,Ayacucho,Ayacucho,-13.1631,-74.2244
1159307965,PE,Lima Province,Lima,-12.05,-77.0333
1159307965,PE,Lima Province,Huaycan,-12.0139,-76.825
1159307967,PE,Huancavelica,Huancavelica,-12.785,-74.9714
1159307969,PE,Junín,Huancayo,-12.0667,-75.2167
1159307971,PE,Lima,Huacho,-11.1083,-77.6083
1159307971,PE,Lima,Barranca,-10.7539,-77.761
1159307975,BR,Rio Grande do Norte,Natal,-5.795,-35.2089
1159307975,BR,Rio Grande do Norte,Mossoró,-5.1878,-37.3439
1159307975,BR,Rio Grande do Norte,Parnamirim,-5.9158,-35.2628
1159307977,ID,Sulawesi Utara,Bitung,1.4451,125.1824
1159307977,ID,Sulawesi Utara,Kotamobagu,0.7333,124.3167
1159307981,BR,Amazonas,Manaus,-3.1,-60.0167
1159307981,BR,Amazonas,Natal,-6.9838,-60.2699
1159307981,BR,Amazonas,Crato,-7.4639,-63.04
1159307981,BR,Amazonas,Parintins,-2.6278,-56.7358
1159307983,BR,Rondônia,Porto Velho,-8.7619,-63.9039
1159307983,BR,Rondônia,Ji-Paraná,-10.8853,-61.9517
1159307983,BR,Rondônia,Ariquemes,-9.9161,-63.0408
1159307983,BR,Rondônia,Vilhena,-12.7406,-60.1458
1159307985,SR,Nickerie,Nieuw Nickerie,5.9261,-56.9731
1159307987,SR,Brokopondo,Brokopondo,5.0404,-55.02
1159307989,SR,Marowijne,Moengo,5.6167,-54.4
1159307993,SR,Para,Onverwacht,5.6,-55.2
1159307995,SR,Sipaliwini,Cottica,3.8547,-54.2289
1159307997,SR,Commewijne,Tamanredjo,5.7667,-55.0
1159307999,SR,Coronie,Totness,5.8904,-56.32
1159308001,SR,Paramaribo,Paramaribo,5.8667,-55.1667
1159308003,SR,Saramacca,Groningen,5.797,-55.481
1159308005,SR,Wanica,Domburg,5.7,-55.0833
1159308007,TH,Phangnga,Phangnga,8.4644,98.5317
1159308011,TH,Phuket,Phuket,7.8881,98.3975
1159308013,VE,Delta Amacuro,Tucupita,9.0575,-62.0452
1159308015,CR,Puntarenas,Buenos Aires,9.1497,-83.3334
1159308017,VN,Sóc Trăng,Sóc Trăng,9.6,105.9719
1159308019,TH,Surat Thani,Surat Thani,9.1397,99.3306
1159308021,VE,Monagas,Maturín,9.7457,-63.1832
1159308023,VN,Bến Tre,Bến Tre,10.2333,106.3833
1159308025,CO,Bolívar,Cartagena,10.4236,-75.5253
1159308025,CO,Bolívar,Magangué,9.2467,-74.7594
1159308029,VN,Bà Rịa - Vũng Tàu,Vũng Tàu,10.4042,107.1417
1159308031,VE,Sucre,Cumaná,10.45,-64.1667
1159308031,VE,Sucre,Carúpano,10.6722,-63.2403
1159308033,VN,Hồ Chí Minh city,Ho Chi Minh City,10.8167,106.6333
1159308033,VN,Hồ Chí Minh city,Thủ Đức,10.8199,106.7909
1159308035,VN,Bình Thuận,Phan Thiết,10.9375,108.1583
1159308037,VE,Nueva Esparta,La Asunción,11.0333,-63.8833
1159308039,TT,Diego Martin,Diego Martin,10.7167,-61.5667
1159308041,TT,Siparia,Siparia,10.1333,-61.5
1159308043,TT,Arima,Arima,10.6374,-61.2823
1159308047,TT,Sangre Grande,Sangre Grande,10.5667,-61.1333
1159308049,TT,Rio Claro-Mayaro,Rio Claro,10.3059,-61.1756
1159308051,TT,San Juan-Laventille,Laventille,10.65,-61.4833
1159308053,TT,Princes Town,Princes Town,10.2667,-61.3833
1159308055,TT,Couva-Tabaquite-Talparo,Couva,10.4167,-61.45
1159308057,TT,Penal-Debe,Debe,10.2,-61.45
1159308059,TT,Point Fortin,Point Fortin,10.1741,-61.6841
1159308061,TT,Tunapuna/Piarco,Tunapuna,10.6333,-61.3833
1159308067,TT,Chaguanas,Chaguanas,10.5144,-61.4075
1159308069,TT,Port of Spain,Port of Spain,10.6667,-61.5167
1159308075,TH,Trat,Trat,12.2417,102.5125
1159308077,SO,Bari,Boosaaso,11.28,49.18
1159308079,VE,Falcón,Punto Fijo,11.7167,-70.1833
1159308079,VE,Falcón,Coro,11.395,-69.6816
1159308083,VE,Apure,Guasdualito,7.2467,-70.7292
1159308083,VE,Apure,San Fernando,7.894,-67.473
1159308085,VE,Barinas,Barinas,8.615,-70.1985
1159308085,VE,Barinas,Socopó,8.2322,-70.8206
1159308087,VE,Mérida,Mérida,8.5833,-71.1333
1159308089,VE,Táchira,San Cristóbal,7.7714,-72.2261
1159308089,VE,Táchira,Táriba,7.8167,-72.2167
1159308091,VE,Trujillo,Valera,9.3206,-70.6078
1159308093,VE,Zulia,Maracaibo,10.6333,-71.6333
1159308093,VE,Zulia,Cabimas,10.4,-71.4333
1159308093,VE,Zulia,Machiques,10.0667,-72.5667
1159308093,VE,Zulia,Ciudad Ojeda,10.2,-71.3
1159308095,VE,Cojedes,San Carlos,9.65,-68.5833
1159308097,VE,Carabobo,Valencia,10.1667,-68.0
1159308097,VE,Carabobo,Puerto Cabello,10.4667,-68.0167
1159308097,VE,Carabobo,Guacara,10.2261,-67.877
1159308097,VE,Carabobo,Tocuyito,10.0889,-68.0922
1159308097,VE,Carabobo,San Diego,10.2558,-67.9539
1159308101,VE,Lara,Barquisimeto,10.0678,-69.3467
1159308101,VE,Lara,Carora,10.1692,-70.0783
1159308101,VE,Lara,Quíbor,9.9281,-69.5778
1159308103,VE,Portuguesa,Acarigua,9.5597,-69.2019
1159308103,VE,Portuguesa,Guanare,9.0436,-69.7489
1159308105,VE,Yaracuy,Yaritagua,10.08,-69.1261
1159308107,VE,Amazonas,Puerto Ayacucho,5.6631,-67.6264
1159308109,VE,Bolívar,Ciudad Guayana,8.3596,-62.6517
1159308109,VE,Bolívar,Ciudad Bolívar,8.1167,-63.55
1159308111,VE,Anzoátegui,Barcelona,10.1333,-64.6833
1159308111,VE,Anzoátegui,Puerto La Cruz,10.2167,-64.6167
1159308111,VE,Anzoátegui,El Tigre,8.8858,-64.2611
1159308111,VE,Anzoátegui,Anaco,9.4333,-64.4667
1159308113,VE,Aragua,Maracay,10.2469,-67.5958
1159308113,VE,Aragua,Turmero,10.2283,-67.4753
1159308113,VE,Aragua,La Victoria,10.2278,-67.3336
1159308113,VE,Aragua,Santa Rita,10.2003,-67.5514
1159308113,VE,Aragua,Palo Negro,10.16,-67.5582
1159308113,VE,Aragua,Villa de Cura,10.0386,-67.4894
1159308113,VE,Aragua,Cagua,10.1875,-67.4611
1159308113,VE,Aragua,El Limón,10.3059,-67.6321
1159308115,VE,Vargas,Catia La Mar,10.6,-67.0333
1159308115,VE,Vargas,La Guaira,10.6,-66.9331
1159308119,VE,Distrito Capital,Caracas,10.5,-66.9333
1159308121,VE,Guárico,Calabozo,8.9219,-67.4283
1159308121,VE,Guárico,Valle de La Pascua,9.2033,-66.0103
1159308123,VE,Miranda,Santa Teresa del Tuy,10.2333,-66.65
1159308123,VE,Miranda,Los Teques,10.3411,-67.0406
1159308123,VE,Miranda,Baruta,10.4335,-66.8754
1159308123,VE,Miranda,Cúa,10.1667,-66.8833
1159308123,VE,Miranda,Guarenas,10.4739,-66.5383
1159308123,VE,Miranda,Guatire,10.4717,-66.5406
1159308123,VE,Miranda,Ocumare del Tuy,10.1136,-66.7814
1159308123,VE,Miranda,Charallave,10.2431,-66.8622
1159308123,VE,Miranda,Santa Lucía,10.2606,-66.6639
1159308125,SS,Northern Bahr el Ghazal,Aweil,8.7666,27.4
1159308127,VN,Khánh Hòa,Nha Trang,12.2495,109.1908
1159308127,VN,Khánh Hòa,Cam Ranh,11.902,109.2207
1159308127,VN,Khánh Hòa,Cam Ranh,11.9136,109.1369
1159308129,YE,Ta`izz,Ta‘izz,13.5789,44.0219
1159308133,YE,Al Hudaydah,Al Ḩudaydah,14.8022,42.9511
1159308137,NI,Rivas,Rivas,11.4333,-85.8333
1159308139,YE,Sa`dah,Şa‘dah,16.9358,43.7644
1159308141,YE,Al Mahwit,Al Maḩwīt,15.4694,43.5453
1159308143,YE,Dhamar,Dhamār,14.55,44.4017
1159308145,YE,Hajjah,Ḩajjah,15.695,43.5975
1159308147,YE,Amran,Khamir,15.99,43.95
1159308149,YE,Ibb,Ibb,13.9759,44.1709
1159308149,YE,Ibb,Ibb,13.9667,44.1667
1159308151,YE,Lahij,Laḩij,13.05,44.8833
1159308155,TH,Mae Hong Son,Mae Hong Son,19.3011,97.97
1159308157,TH,Chumphon,Chumphon,10.4939,99.18
1159308159,TH,Nakhon Si Thammarat,Nakhon Si Thammarat,8.4363,99.963
1159308161,TH,Ranong,Ban Bang Rin,9.9532,98.6344
1159308163,TH,Phichit,Phichit,16.4431,100.3467
1159308165,TH,Phetchabun,Wichian Buri,15.6565,101.1072
1159308167,TH,Suphan Buri,Suphan Buri,14.4675,100.1169
1159308169,TH,Tak,Mae Sot,16.7101,98.5707
1159308173,TH,Uthai Thani,Uthai Thani,15.38,100.025
1159308175,TH,Ang Thong,Ang Thong,14.5926,100.4574
1159308177,TH,Chai Nat,Chai Nat,15.1872,100.1283
1159308179,TH,Lop Buri,Lop Buri,14.8,100.6269
1159308181,TH,Nakhon Nayok,Nakhon Nayok,14.2031,101.215
1159308183,TH,Prachin Buri,Prachin Buri,14.0567,101.3739
1159308185,TH,Nakhon Sawan,Nakhon Sawan,15.7133,100.1353
1159308187,TH,Phra Nakhon Si Ayutthaya,Phra Nakhon Si Ayutthaya,14.3594,100.5761
1159308191,TH,Pathum Thani,Ban Talat Rangsit,13.987,100.6095
1159308193,TH,Sing Buri,Sing Buri,14.8911,100.4031
1159308195,TH,Saraburi,Saraburi,14.5286,100.9114
1159308197,TH,Bangkok Metropolis,Bangkok,13.75,100.5167
1159308199,TH,Nonthaburi,Nonthaburi,13.8667,100.5167
1159308199,TH,Nonthaburi,Pak Kret,13.9125,100.4978
1159308201,TH,Nakhon Pathom,Nakhon Pathom,13.8194,100.0581
1159308203,TH,Phetchaburi,Cha-am,12.7992,99.9683
1159308205,TH,Prachuap Khiri Khan,Hua Hin,12.5686,99.9578
1159308209,TH,Ratchaburi,Ratchaburi,13.5367,99.8169
1159308211,TH,Samut Prakan,Ban Bang Pu Mai,13.5441,100.6175
1159308211,TH,Samut Prakan,Ban Mangkon,13.6138,100.6104
1159308213,TH,Samut Sakhon,Samut Sakhon,13.5486,100.2775
1159308215,TH,Samut Songkhram,Samut Songkhram,13.4097,100.0017
1159308217,TH,Si Sa Ket,Si Sa Ket,15.1072,104.3291
1159308219,TH,Ubon Ratchathani,Ubon Ratchathani,15.2281,104.8594
1159308221,TH,Amnat Charoen,Amnat Charoen,15.8758,104.6223
1159308223,TH,Yasothon,Yasothon,15.7883,104.1506
1159308227,TH,Chon Buri,Phatthaya,12.9496,100.893
1159308229,TH,Chachoengsao,Chachoengsao,13.6903,101.0703
1159308231,TH,Chanthaburi,Chanthaburi,12.6086,102.1039
1159308233,TH,Sa Kaeo,Wang Nam Yen,13.5004,102.1806
1159308235,TH,Rayong,Rayong,12.6742,101.2789
1159308237,TH,Buri Ram,Buri Ram,14.9942,103.1022
1159308239,TH,Chaiyaphum,Chaiyaphum,15.8056,102.0311
1159308241,TH,Khon Kaen,Khon Kaen,16.4297,102.8297
1159308245,TH,Kalasin,Kalasin,16.4333,103.5
1159308247,TH,Maha Sarakham,Maha Sarakham,16.1772,103.3008
1159308249,TH,Nakhon Ratchasima,Nakhon Ratchasima,14.9736,102.0831
1159308251,TH,Roi Et,Roi Et,16.0533,103.6513
1159308253,TH,Surin,Surin,14.8864,103.4932
1159308255,TH,Loei,Loei,17.4853,101.7307
1159308257,TH,Nong Khai,Nong Khai,17.8842,102.7467
1159308259,TH,Sakon Nakhon,Sakon Nakhon,17.1564,104.1456
1159308263,TH,Udon Thani,Udon Thani,17.4253,102.7902
1159308265,TH,Nong Bua Lam Phu,Nong Bua Lamphu,17.2042,102.4444
1159308267,TH,Nakhon Phanom,Nakhon Phanom,17.4069,104.7808
1159308269,TH,Mukdahan,Mukdahan,16.5431,104.7228
1159308271,TH,Narathiwat,Su-ngai Kolok,6.0297,101.9668
1159308273,TH,Pattani,Pattani,6.8664,101.2508
1159308275,VN,Quảng Ninh,Hạ Long,20.9514,107.0852
1159308275,VN,Quảng Ninh,Cẩm Phả,21.0094,107.2728
1159308277,SD,Blue Nile,Kurmuk,10.575923,34.24479
1159308277,SD,Blue Nile,Ed Damazin,11.7704,34.35
1159308281,SD,Red Sea,Port Sudan,19.6158,37.2164
1159308283,BS,New Providence,Nassau,25.0667,-77.3333
1159308285,TW,Tainan City,Tainan,22.9833,120.1833
1159308287,TW,Penghu,Magong,23.5667,119.5833
1159308289,TW,Chiayi,Pozi,23.4611,120.242
1159308291,VN,Lâm Đồng,Ấp Đa Lợi,11.9304,108.42
1159308293,VN,Ninh Thuận,Phan Rang-Tháp Chàm,11.5643,108.9886
1159308295,VN,Phú Yên,Tuy Hòa,13.0869,109.3086
1159308299,VN,Bình Dương,Thủ Dầu Một,11.0042,106.6583
1159308301,VN,Bình Phước,Bình Long,11.6504,106.6
1159308303,VN,Bình Định,Quy Nhơn,13.7696,109.2314
1159308305,VN,Kon Tum,Mang La,14.3838,107.9833
1159308307,VN,Quàng Nam,Hội An,15.8777,108.3327
1159308309,VN,Quảng Ngãi,Quảng Ngãi,15.1206,108.7922
1159308311,VN,Quảng Trị,Quảng Trị,16.7504,107.2
1159308313,VN,Thừa Thiên - Huế,Huế,16.4637,107.5908
1159308317,VN,Đà Nẵng,Quảng Hà,16.06,108.25
1159308319,VN,Tây Ninh,Tây Ninh,11.3131,106.0963
1159308321,VN,Điện Biên,Luân Châu,21.74,103.343
1159308323,VN,Đông Bắc,Bắc Kạn,22.1514,105.8377
1159308325,VN,Thái Nguyên,Thái Nguyên,21.6,105.85
1159308327,VN,Lào Cai,Lào Cai,22.4194,103.995
1159308329,VN,Lạng Sơn,Lạng Sơn,21.8478,106.7578
1159308331,VN,Son La,Sơn La,21.327,103.9141
1159308335,VN,Thanh Hóa,Thanh Hóa,19.8075,105.7764
1159308337,VN,Tuyên Quang,Tuyên Quang,21.8281,105.2156
1159308339,VN,Yên Bái,Yên Bái,21.7,104.8667
1159308341,VN,Hòa Bình,Hòa Bình,20.8175,105.3375
1159308343,VN,Hải Dương,Hải Dương,20.9399,106.3309
1159308345,VN,Đồng Bằng Sông Hồng,Hưng Yên,20.6464,106.0511
1159308347,VN,Ha Noi,Hanoi,21.0245,105.8412
1159308347,VN,Ha Noi,Sơn Tây,21.1382,105.505
1159308349,VN,Bắc Ninh,Bắc Ninh,21.1861,106.0763
1159308353,VN,Vĩnh Phúc,Vĩnh Yên,21.31,105.5967
1159308355,VN,Ninh Bình,Ninh Bình,20.2539,105.975
1159308357,VN,Hà Nam,Phủ Lý,20.5453,105.9122
1159308359,VN,Nam Định,Nam Định,20.42,106.1683
1159308361,VN,Phú Thọ,Việt Trì,21.3136,105.3947
1159308363,VN,Bắc Giang,Bắc Giang,21.2731,106.1947
1159308365,VN,Thái Bình,Thái Bình,20.4461,106.3422
1159308367,VN,Ha Tinh,Hà Tĩnh,18.3431,105.9058
1159308371,VN,Nghệ An,Vinh,18.6733,105.6922
1159308373,VN,Quảng Bình,Đồng Hới,17.4833,106.6
1159308375,VN,Đông Nam Bộ,Biên Hòa,10.9277,106.8681
1159308377,VN,An Giang,Long Xuyên,10.3686,105.4234
1159308377,VN,An Giang,Châu Đốc,10.7,105.1167
1159308379,VN,Can Tho,Sa Đéc,10.3105,105.7397
1159308381,VN,Ðong Tháp,Cao Lãnh,10.4603,105.6331
1159308383,VN,Kiên Giang,Rạch Giá,10.0125,105.0808
1159308385,VN,Long An,Tân An,10.5322,106.4042
1159308389,VN,Hau Giang,Cần Thơ,10.0333,105.7833
1159308391,VN,Bạc Liêu,Bạc Liêu,9.2833,105.7167
1159308393,VN,Cà Mau,Cà Mau,9.1833,105.15
1159308395,VN,Trà Vinh,Trà Vinh,9.9369,106.3411
1159308397,VN,Vĩnh Long,Vĩnh Long,10.255,105.9753
1159308399,VN,Cao Bằng,Cao Bằng,22.6731,106.25
1159308401,VN,Hà Giang,Hà Giang,22.8233,104.9836
1159308403,AE,Sharjah,Sharjah,25.3575,55.3919
1159308409,US,Hawaii,Honolulu,21.3294,-157.846
1159308411,NP,Rapti,Tulsīpur,28.1278,82.2956
1159308413,EG,Shamal Sina',Al ‘Arīsh,31.1249,33.8006
1159308415,US,California,Los Angeles,34.1139,-118.4068
1159308415,US,California,San Francisco,37.7562,-122.443
1159308415,US,California,San Diego,32.8312,-117.1225
1159308415,US,California,Riverside,33.9381,-117.3948
1159308415,US,California,Sacramento,38.5667,-121.4683
1159308415,US,California,San Jose,37.3019,-121.8486
1159308415,US,California,Fresno,36.7831,-119.7941
1159308415,US,California,Concord,37.9722,-122.0016
1159308415,US,California,Mission Viejo,33.6095,-117.655
1159308415,US,California,Bakersfield,35.3529,-119.0359
1159308415,US,California,Murrieta,33.572,-117.1909
1159308415,US,California,Long Beach,33.7981,-118.1675
1159308415,US,California,Oakland,37.7903,-122.2165
1159308415,US,California,Indio,33.7346,-116.2346
1159308415,US,California,Stockton,37.9765,-121.3109
1159308415,US,California,Oxnard,34.1963,-119.1815
1159308415,US,California,Modesto,37.6374,-121.0028
1159308415,US,California,Anaheim,33.839,-117.8572
1159308415,US,California,Victorville,34.5277,-117.3536
1159308415,US,California,Lancaster,34.6935,-118.1753
1159308415,US,California,Santa Ana,33.7366,-117.8819
1159308415,US,California,Santa Rosa,38.4458,-122.7067
1159308415,US,California,Santa Clarita,34.4175,-118.4964
1159308415,US,California,Antioch,37.9789,-121.7958
1159308415,US,California,Irvine,33.6772,-117.7738
1159308415,US,California,Chula Vista,32.6281,-117.0145
1159308415,US,California,Fremont,37.5265,-121.9852
1159308415,US,California,Visalia,36.3276,-119.3269
1159308415,US,California,San Bernardino,34.1417,-117.2946
1159308415,US,California,Thousand Oaks,34.1914,-118.8755
1159308415,US,California,Fontana,34.0968,-117.4599
1159308415,US,California,Moreno Valley,33.9244,-117.2045
1159308415,US,California,Santa Barbara,34.4285,-119.7202
1159308415,US,California,Glendale,34.1818,-118.2468
1159308415,US,California,Huntington Beach,33.696,-118.0025
1159308415,US,California,Salinas,36.6884,-121.6317
1159308415,US,California,Ontario,34.0393,-117.6064
1159308415,US,California,Rancho Cucamonga,34.1248,-117.5666
1159308415,US,California,Hemet,33.7341,-116.9969
1159308415,US,California,Santa Cruz,36.9789,-122.0346
1159308415,US,California,Oceanside,33.2247,-117.3083
1159308415,US,California,Elk Grove,38.416,-121.3842
1159308415,US,California,Vallejo,38.1133,-122.2358
1159308415,US,California,Garden Grove,33.7787,-117.9601
1159308415,US,California,Corona,33.8616,-117.5649
1159308415,US,California,Hayward,37.6328,-122.0772
1159308415,US,California,Palmdale,34.5944,-118.1057
1159308415,US,California,Sunnyvale,37.3836,-122.0256
1159308415,US,California,Pomona,34.0585,-117.7626
1159308415,US,California,Escondido,33.1347,-117.0722
1159308415,US,California,Fairfield,38.2592,-122.0324
1159308415,US,California,Merced,37.3057,-120.4778
1159308415,US,California,Torrance,33.8346,-118.3417
1159308415,US,California,Roseville,38.7703,-121.3196
1159308415,US,California,Pasadena,34.1597,-118.139
1159308415,US,California,Santa Maria,34.9334,-120.4432
1159308415,US,California,Orange,33.8038,-117.8218
1159308415,US,California,Fullerton,33.8841,-117.9279
1159308415,US,California,Santa Clara,37.3645,-121.968
1159308415,US,California,Simi Valley,34.2663,-118.749
1159308415,US,California,Berkeley,37.8723,-122.276
1159308415,US,California,Redding,40.5698,-122.365
1159308415,US,California,East Los Angeles,34.0326,-118.1691
1159308415,US,California,Yuba City,39.1357,-121.6381
1159308415,US,California,Gilroy,37.0047,-121.5855
1159308415,US,California,Chico,39.7575,-121.8152
1159308415,US,California,Seaside,36.6224,-121.8191
1159308415,US,California,El Monte,34.0739,-118.0291
1159308415,US,California,Carlsbad,33.1247,-117.2837
1159308415,US,California,Temecula,33.4928,-117.1315
1159308415,US,California,Clovis,36.8278,-119.6831
1159308415,US,California,Costa Mesa,33.6667,-117.9135
1159308415,US,California,El Centro,32.7867,-115.5586
1159308415,US,California,Downey,33.9379,-118.1312
1159308415,US,California,Richmond,37.9477,-122.339
1159308415,US,California,Jurupa Valley,34.001,-117.4705
1159308415,US,California,San Buenaventura,34.2741,-119.2314
1159308415,US,California,Inglewood,33.9566,-118.3444
1159308415,US,California,Turlock,37.5053,-120.8588
1159308415,US,California,Daly City,37.6862,-122.4685
1159308415,US,California,West Covina,34.0555,-117.9112
1159308415,US,California,San Mateo,37.5521,-122.3122
1159308415,US,California,Norwalk,33.9069,-118.0829
1159308415,US,California,Rialto,34.1174,-117.3894
1159308415,US,California,Manteca,37.7927,-121.2264
1159308415,US,California,Arden-Arcade,38.6034,-121.381
1159308415,US,California,El Cajon,32.8017,-116.9605
1159308415,US,California,Burbank,34.1879,-118.3235
1159308415,US,California,Vista,33.1896,-117.2386
1159308415,US,California,Vacaville,38.359,-121.968
1159308415,US,California,Tracy,37.7269,-121.4522
1159308417,JP,Ōsaka,Ōsaka,34.75,135.4601
1159308417,JP,Ōsaka,Higashi-ōsaka,34.6794,135.6008
1159308417,JP,Ōsaka,Neya,34.7661,135.6281
1159308417,JP,Ōsaka,Izuo,34.4836,135.4236
1159308417,JP,Ōsaka,Daitōchō,34.7119,135.6233
1159308417,JP,Ōsaka,Kadoma,34.7333,135.5833
1159308417,JP,Ōsaka,Tondabayashichō,34.4992,135.5972
1159308417,JP,Ōsaka,Habikino,34.5578,135.6061
1159308417,JP,Ōsaka,Ikeda,34.8167,135.4333
1159308419,CY,Larnaca,Larnaca,34.9233,33.6305
1159308421,PT,Faro,Loulé,37.144,-8.0235
1159308425,SY,Lattakia,Latakia,35.5236,35.7917
1159308427,SY,Tartus,Şāfītā,34.8208,36.1173
1159308429,SY,Ar Raqqah,Ar Raqqah,35.95,39.0167
1159308431,SY,Aleppo,Aleppo,36.2,37.15
1159308433,SY,Hamah,Ḩamāh,35.1333,36.75
1159308433,SY,Hamah,As Salamīyah,35.0111,37.0531
1159308435,SY,Homs (Hims),Homs,34.7333,36.7167
1159308437,SY,Idlib,Idlib,35.9333,36.6333
1159308439,SY,Hasaka (Al Haksa),Al Ḩasakah,36.5117,40.7422
1159308439,SY,Hasaka (Al Haksa),Al Qāmishlī,37.05,41.2167
1159308443,SY,Dayr Az Zawr,Dayr az Zawr,35.3333,40.15
1159308445,SY,As Suwayda',As Suwaydā’,32.7,36.5667
1159308447,SY,Rif Dimashq,Dūmā,33.5722,36.4019
1159308447,SY,Rif Dimashq,Jaramānā,33.4833,36.35
1159308447,SY,Rif Dimashq,Al Ḩajar al Aswad,33.4581,36.3053
1159308451,SY,Dar`a,Dar‘ā,32.625,36.105
1159308453,TN,Monastir,Monastir,35.778,10.8262
1159308455,TN,Kairouan,Kairouan,35.6833,10.1
1159308457,TN,Sousse,Sousse,35.8333,10.6333
1159308457,TN,Sousse,Msaken,35.7333,10.5833
1159308461,TN,Zaghouan,Zaghouan,36.4028,10.1433
1159308463,TM,Balkan,Balkanabat,39.5119,54.365
1159308465,ES,Baleares,Palma,39.5667,2.65
1159308467,UZ,Ferghana,Qoqon,40.5404,70.94
1159308467,UZ,Ferghana,Farg‘ona,40.3864,71.7864
1159308467,UZ,Ferghana,Marg‘ilon,40.4667,71.7167
1159308469,TJ,Gorno-Badakhshan,Khorugh,37.4917,71.5575
1159308471,TJ,Khatlon,Kŭlob,37.9119,69.7808
1159308473,TJ,Tadzhikistan Territories,Tursunzoda,38.5108,68.2303
1159308475,TJ,Leninabad,Khŭjand,40.2833,69.6167
1159308481,FR,Haute-Corse,Bastia,42.7008,9.4503
1159308483,TM,Ahal,Ashgabat,37.95,58.3833
1159308485,TM,Tashauz,Daşoguz,41.8167,59.9831
1159308487,TM,Chardzhou,Türkmenabat,39.1,63.5667
1159308489,TM,Mary,Mary,37.6,61.8333
1159308491,ES,Córdoba,Córdoba,37.8845,-4.7796
1159308493,ES,Ciudad Real,Puertollano,38.6833,-4.1167
1159308497,ES,Cantabria,Torrelavega,43.3531,-4.0458
1159308499,ES,Madrid,Madrid,40.4167,-3.7167
1159308499,ES,Madrid,Fuenlabrada,40.2833,-3.8
1159308499,ES,Madrid,Leganés,40.3281,-3.7644
1159308499,ES,Madrid,Getafe,40.3047,-3.7311
1159308499,ES,Madrid,Alcorcón,40.35,-3.8333
1159308499,ES,Madrid,Torrejón de Ardoz,40.4614,-3.4978
1159308501,US,Maine,Portland,43.6773,-70.2715
1159308503,RS,Pirotski,Pirot,43.1519,22.585
1159308505,RS,Borski,Bor,44.1303,22.1036
1159308507,IT,Venezia,Venice,45.4397,12.3319
1159308509,UZ,Bukhoro,Bukhara,39.7747,64.4286
1159308509,UZ,Bukhoro,Kogon Shahri,39.7211,64.5458
1159308511,UZ,Khorezm,Urganch,41.5345,60.6249
1159308515,UZ,Karakalpakstan,Nukus,42.4647,59.6022
1159308517,UZ,Navoi,Navoiy,40.0833,65.3833
1159308519,UZ,Samarkand,Samarkand,39.6542,66.9597
1159308521,UZ,Kashkadarya,Qarshi,38.8667,65.8
1159308521,UZ,Kashkadarya,Shahrisabz,39.05,66.8333
1159308523,UZ,Surkhandarya,Denov,38.2772,67.8872
1159308523,UZ,Surkhandarya,Termiz,37.2242,67.2783
1159308525,UZ,Andijon,Andijon,40.7,72.35
1159308527,UZ,Namangan,Namangan,40.9953,71.6725
1159308529,UZ,Jizzakh,Jizzax,40.1167,67.85
1159308533,UZ,Sirdaryo,Guliston,40.4833,68.7833
1159308535,UZ,Tashkent,Iskandar,41.5507,69.6807
1159308535,UZ,Tashkent,Chirchiq,41.4667,69.5833
1159308535,UZ,Tashkent,Angren,41.0167,70.1333
1159308535,UZ,Tashkent,Olmaliq,40.85,69.6
1159308537,KZ,Baykonur lease in Qyzylorda,Baikonur,45.63,63.314
1159308539,SI,Šalovci,Šalovci,46.825,16.2981
1159308541,SI,Kuzma,Kuzma,46.8369,16.0833
1159308543,SI,Cerkvenjak,Cerkvenjak,46.5706,15.9436
1159308545,SI,Benedikt,Benedikt,46.6086,15.8883
1159308547,SI,Sveta Ana,Sveta Ana,46.6492,15.8442
1159308553,SI,Grad,Grad,46.8,16.1
1159308557,SI,Dobrova-Polhov Gradec,Dobrova,46.055,14.4172
1159308559,SI,Domžale,Domžale,46.1333,14.6
1159308561,SI,Kamnik,Kamnik,46.225,14.6097
1159308563,SI,Kocevje,Kočevje,45.643,14.8594
1159308565,SI,Lenart,Lenart v Slovenskih Goricah,46.5755,15.8306
1159308569,SI,Loška dolina,Stari Trg,45.7128,14.4694
1159308571,SI,Luce,Luče,46.3561,14.7467
1159308573,SI,Majšperk,Majšperk,46.3517,15.7336
1159308575,SI,Novo Mesto,Novo Mesto,45.7981,15.1628
1159308577,SI,Bistrica ob Sotli,Podčetrtek,46.1569,15.5986
1159308579,SI,Podvelka,Podvelka,46.5869,15.3306
1159308581,SI,Preddvor,Preddvor,46.3025,14.4231
1159308583,SI,Ptuj,Ptuj,46.4186,15.8714
1159308587,SI,Ravne na Koroškem,Ravne na Koroškem,46.5437,14.9642
1159308589,SI,Ribnica,Ribnica,45.7386,14.7275
1159308591,SI,Ruše,Ruše,46.5383,15.5153
1159308593,SI,Šentjur pri Celju,Šentjur,46.2225,15.3973
1159308595,SI,Slovenska Bistrica,Slovenska Bistrica,46.3941,15.5707
1159308597,SI,Videm,Videm pri Ptuju,46.3686,15.9064
1159308599,SI,Vojnik,Vojnik,46.2931,15.3028
1159308601,SI,Žalec,Žalec,46.2516,15.1674
1159308605,SI,Komenda,Komenda,46.2038,14.5407
1159308607,SI,Oplotnica,Oplotnica,46.3878,15.4467
1159308609,SI,Hajdina,Spodnja Hajdina,46.4089,15.8469
1159308611,SI,Miklavž na Dravskem polju,Miklavž na Dravskem Polju,46.5058,15.6972
1159308613,SI,Hoce-Slivnica,Spodnje Hoče,46.5,15.65
1159308615,SI,Trnovska vas,Destrnik,46.5006,15.875
1159308617,SI,Žetale,Žetale,46.275,15.7939
1159308619,SI,Podlehnik,Podlehnik,46.3353,15.88
1159308623,SI,Prevalje,Prevalje,46.5469,14.9208
1159308625,SI,Selnica ob Dravi,Selnica ob Dravi,46.55,15.495
1159308627,SI,Lovrenc na Pohorju,Lovrenc na Pohorju,46.5406,15.3931
1159308629,SI,Trzin,Trzin,46.1333,14.5667
1159308631,SI,Jezersko,Zgornje Jezersko,46.3833,14.4667
1159308633,SI,Žužemberk,Žužemberk,45.8339,14.9292
1159308635,SI,Dobrna,Dobrna,46.3375,15.2264
1159308637,SI,Tabor,Tabor,46.2361,15.0183
1159308641,SI,Vransko,Vransko,46.2439,14.9514
1159308643,SI,Mirna Pec,Mirna Peč,45.8603,15.0833
1159308645,SI,Prebold,Prebold,46.2369,15.0925
1159308649,SI,Kostel,Osilnica,45.5292,14.6979
1159308651,SI,Braslovce,Polzela,46.2833,15.0667
1159308653,SI,Sodražica,Sodražica,45.7611,14.6356
1159308659,SI,Horjul,Horjul,46.0236,14.2992
1159308661,SI,Solcava,Solčava,46.4194,14.6936
1159308663,SI,Dobje,Dobje,46.1367,15.4089
1159308665,SI,Dobrepolje,Videm,45.85,14.6942
1159308667,SI,Bloke,Nova Vas,45.7717,14.5058
1159308669,SI,Podcetrtek,Bistrica ob Sotli,46.0569,15.6625
1159308671,SI,Maribor,Maribor,46.55,15.6333
1159308673,SI,Ribnica na Pohorju,Ribnica,46.535,15.2728
1159308677,SI,Jesenice,Jesenice,46.4366,14.0602
1159308679,SI,Žirovnica,Žirovnica,46.4047,14.14
1159308681,SI,Nova Goriška,Nova Gorica,45.9667,13.65
1159308683,SI,Šempeter-Vrtojba,Gorizia,45.9352,13.6193
1159308685,SI,Črenšovci,Črenšovci,46.5744,16.2906
1159308687,SI,Lendava,Lendava,46.5662,16.4499
1159308689,SI,Ljutomer,Ljutomer,46.5208,16.1975
1159308691,SI,Križevci,Križevci,46.5683,16.1386
1159308695,SI,Veržej,Veržej,46.5836,16.1653
1159308697,SI,Sveti Andraž v Slovenskih Goricah,Vitomarci,46.5275,15.9394
1159308699,SI,Razkrižje,Razkrižje,46.5217,16.2811
1159308701,SI,Velika Polana,Velika Polana,46.5719,16.3469
1159308703,CA,Québec,Montréal,45.5089,-73.5617
1159308703,CA,Québec,Laval,45.5833,-73.75
1159308703,CA,Québec,Gatineau,45.4833,-75.65
1159308703,CA,Québec,Longueuil,45.5333,-73.5167
1159308703,CA,Québec,Sherbrooke,45.4,-71.9
1159308703,CA,Québec,Saguenay,48.4167,-71.0667
1159308703,CA,Québec,Lévis,46.8,-71.1833
1159308703,CA,Québec,Trois-Rivières,46.35,-72.55
1159308703,CA,Québec,Terrebonne,45.716109545454565,-73.660940454545511
1159308705,BE,Hainaut,Charleroi,50.4167,4.4442
1159308707,BE,Limburg,Hasselt,50.9304,5.3383
1159308709,IE,Cork,Carrigtohill,51.9,-8.2667
1159308713,CA,Newfoundland and Labrador,St. John's,47.4817,-52.7971
1159308715,IE,Clare,Ennis,52.8463,-8.9807
1159308717,IE,Carlow,Carlow,52.8306,-6.9317
1159308719,IE,Cavan,An Cabhán,53.9908,-7.3606
1159308723,SE,Kalmar,Kalmar,56.6694,16.3218
1159308725,SE,Gotland,Visby,57.629,18.3071
1159308727,SE,Östergötland,Linköping,58.4094,15.6257
1159308731,US,Alaska,Anchorage,61.1508,-149.1091
1159308733,SE,Stockholm,Stockholm,59.3294,18.0686
1159308737,SE,Uppsala,Uppsala,59.8498,17.6389
1159308737,SE,Uppsala,Uppsala,59.8601,17.64
1159308739,SE,Västernorrland,Sundsvall,62.3902,17.3067
1159308741,SE,Västerbotten,Umeå,63.8285,20.2706
1159308743,NO,Nordland,Bodø,67.28365,14.444388953488371
1159308745,SE,Norrbotten,Luleå,65.5838,22.1915
1159308749,SE,Gävleborg,Gävle,60.667,17.1666
1159308751,SE,Jönköping,Jönköping,57.7833,14.1667
1159308753,SE,Dalarna,Borlänge,60.4833,15.4167
1159308755,SE,Kronoberg,Växjö,56.8837,14.8167
1159308757,SE,Orebro,Örebro,59.2669,15.1965
1159308759,SE,Södermanland,Nyköping,58.7582,17.0185
1159308761,SE,Västmanland,Västerås,59.6173,16.5422
1159308763,SE,Halland,Halmstad,56.6754,12.8587
1159308767,SE,Värmland,Karlstad,59.3808,13.5016
1159308769,SE,Jämtland,Östersund,63.1775,14.6414
1159308771,CA,Northwest Territories,Yellowknife,62.4709,-114.4053
1159308773,CA,Saskatchewan,Saskatoon,52.1333,-106.6833
1159308773,CA,Saskatchewan,Regina,50.4547,-104.6067
1159308775,CA,Alberta,Calgary,51.05,-114.0667
1159308775,CA,Alberta,Edmonton,53.5344,-113.4903
1159308775,CA,Alberta,Red Deer,52.2681,-113.8111
1159308777,CA,Manitoba,Winnipeg,49.8844,-97.1464
1159308779,ID,Sulawesi Tenggara,Kendari,-3.945,122.4989
1159308779,ID,Sulawesi Tenggara,Baubau,-5.4667,122.633
1159308781,PG,West New Britain,Kimbe,-5.55,150.143
1159308785,CA,New Brunswick,Moncton,46.1328,-64.7714
1159308785,CA,New Brunswick,Dieppe,46.0989,-64.7242
1159308787,RO,Arad,Arad,46.1667,21.3167
1159308789,RO,Bihor,Oradea,47.0722,21.9211
1159308791,RO,Caras-Severin,Reşiţa,45.297,21.8865
1159308793,RO,Timis,Timişoara,45.7597,21.23
1159308795,RO,Botosani,Botoşani,47.7486,26.6694
1159308797,RO,Alba,Alba Iulia,46.0764,23.5728
1159308799,RO,Bistrita-Nasaud,Bistriţa,47.1333,24.4833
1159308803,RO,Cluj,Cluj-Napoca,46.7667,23.6
1159308805,RO,Hunedoara,Deva,45.8719,22.9117
1159308807,RO,Maramures,Baia Mare,47.6597,23.5819
1159308809,RO,Mures,Târgu-Mureş,46.5497,24.5597
1159308811,RO,Salaj,Zalău,47.1911,23.0572
1159308813,RO,Satu Mare,Satu Mare,47.79,22.89
1159308815,RO,Arges,Piteşti,44.8667,24.8833
1159308817,RO,Sibiu,Sibiu,45.8,24.15
1159308821,RO,Vâlcea,Râmnicu Vâlcea,45.1047,24.3756
1159308823,RO,Brasov,Braşov,45.65,25.6
1159308825,RO,Covasna,Sfântu-Gheorghe,45.8636,25.7875
1159308827,RO,Harghita,Miercurea-Ciuc,46.361,25.524
1159308829,RO,Iasi,Iaşi,47.1622,27.5889
1159308831,RO,Neamt,Piatra Neamţ,46.9275,26.3708
1159308833,RO,Prahova,Ploieşti,44.9386,26.0225
1159308835,RO,Suceava,Suceava,47.6514,26.2556
1159308839,RO,Bacau,Bacău,46.5833,26.9167
1159308841,RO,Braila,Brăila,45.2692,27.9575
1159308843,RO,Buzau,Buzău,45.1517,26.8167
1159308845,RO,Galati,Galaţi,45.4233,28.0425
1159308847,RO,Vaslui,Bârlad,46.2167,27.6667
1159308849,RO,Vrancea,Focşani,45.6997,27.1797
1159308851,NC,Îles Loyauté,Wé,-20.9,167.2667
1159308853,ID,Nusa Tenggara Barat,Mataram,-8.5833,116.1167
1159308853,ID,Nusa Tenggara Barat,Raba,-8.4614,118.747
1159308857,ID,Papua,Jayapura,-2.5333,140.7167
1159308857,ID,Papua,Biak,-1.1615,136.0485
1159308859,PG,Northern,Popondetta,-8.7656,148.2347
1159308861,ID,Sulawesi Tengah,Palu,-0.895,119.8594
1159308865,ID,Sumatera Utara,Medan,3.6667,98.6667
1159308865,ID,Sumatera Utara,Pematangsiantar,2.96,99.06
1159308865,ID,Sumatera Utara,Binjai,3.6,98.4853
1159308865,ID,Sumatera Utara,Padangsidempuan,1.3667,99.2667
1159308865,ID,Sumatera Utara,Tebingtinggi,3.3283,99.1625
1159308865,ID,Sumatera Utara,Tanjungbalai,2.9667,99.8
1159308865,ID,Sumatera Utara,Gunungsitoli,1.1167,97.5667
1159308867,BR,Amapá,Vila Velha,3.2167,-51.2167
1159308867,BR,Amapá,Macapá,0.033,-51.0653
1159308867,BR,Amapá,Santana,-0.035,-51.175
1159308869,ID,Aceh,Banda Aceh,5.55,95.3175
1159308869,ID,Aceh,Lhokseumawe,5.18,97.1506
1159308869,ID,Aceh,Langsa,4.4667,97.95
1159308871,GY,Mahaica-Berbice,New Amsterdam,6.25,-57.5167
1159308875,KE,Eastern,Meru,0.05,37.65
1159308875,KE,Eastern,Machakos,-1.5167,37.2667
1159308877,KE,Rift Valley,Nakuru,-0.2833,36.0667
1159308877,KE,Rift Valley,Eldoret,0.5167,35.2833
1159308879,KE,Western,Mumias,0.3333,34.4833
1159308881,KE,North-Eastern,Garissa,-0.4569,39.6583
1159308883,BR,Roraima,Boa Vista,2.82,-60.6719
1159308885,TH,Satun,Satun,6.6147,100.0681
1159308887,MY,Perak,Ipoh,4.6,101.07
1159308887,MY,Perak,Taiping,4.85,100.7333
1159308887,MY,Perak,Teluk Intan,4.0333,101.0167
1159308889,GY,Upper Takutu-Upper Essequibo,Linden,6.0,-58.3
1159308893,GY,East Berbice-Corentyne,Georgetown,6.7833,-58.1667
1159308895,GY,Demerara-Mahaica,Vreed-en-Hoop,6.8,-58.1833
1159308897,GY,Essequibo Islands-West Demerara,Fort Wellington,6.3909,-57.6038
1159308899,GY,Potaro-Siparuni,Mahdia,5.2667,-59.15
1159308901,GY,Upper Demerara-Berbice,Lethem,3.3833,-59.8
1159308903,GY,Barima-Waini,Mabaruma,8.2,-59.7833
1159308905,GY,Pomeroon-Supenaam,Bartica,6.4104,-58.63
1159308907,GY,Cuyuni-Mazaruni,Anna Regina,7.25,-58.5167
1159308911,LR,Grand Kru,Barclayville,4.8,-8.1667
1159308913,LR,Maryland,Harper,4.3754,-7.717
1159308915,LR,Sinoe,Greenville,5.0111,-9.0388
1159308917,LR,Bomi,Tubmanburg,6.8706,-10.8211
1159308919,LR,Bong,Gbarnga,7.0104,-9.49
1159308921,LR,Grand Bassa,Upper Buchanan,5.9161,-10.0525
1159308923,LR,Grand Cape Mount,Robertsport,6.7533,-11.3686
1159308925,LR,Lofa,Voinjama,8.4167,-9.75
1159308929,LR,Montserrado,Monrovia,6.3106,-10.8047
1159308931,LR,Margibi,Kakata,6.53,-10.3517
1159308933,LR,Nimba,Sanniquellie,7.371,-8.685
1159308935,LR,River Cess,Cestos City,5.4697,-9.5817
1159308937,LR,Grand Gedeh,Zwedru,6.0704,-8.13
1159308939,SL,Eastern,Kenema,7.8833,-11.1833
1159308941,CF,Mambéré-Kadéï,Berbérati,4.2667,15.7833
1159308943,CF,Sangha-Mbaéré,Nola,3.5337,16.0666
1159308947,CF,Nana-Mambéré,Bouar,5.95,15.6
1159308949,CF,Ouham-Pendé,Bozoum,6.3172,16.3783
1159308951,CF,Bamingui-Bangoran,Ndélé,8.4091,20.653
1159308953,CF,Nana-Grébizi,Kaga Bandoro,7.0006,19.1808
1159308955,CF,Kémo,Sibut,5.7378,19.0867
1159308957,CF,Ouaka,Bambari,5.7667,20.6833
1159308959,CF,Ouham,Bossangoa,6.4833,17.45
1159308961,CF,Vakaga,Birao,10.2837,22.7833
1159308965,CF,Basse-Kotto,Mobaye,4.3167,21.1833
1159308967,CF,Lobaye,Mbaïki,3.8833,18.0
1159308969,CF,Haute-Kotto,Bria,6.5369,21.9919
1159308971,CF,Haut-Mbomou,Zemio,5.0337,25.1333
1159308973,CF,Mbomou,Bangassou,4.737,22.819
1159308975,TG,Plateaux,Kpalimé,6.91,0.6281
1159308977,TG,Maritime,Lomé,6.1319,1.2228
1159308979,TG,Kara,Bassar,9.25,0.7833
1159308983,TG,Centre,Sokodé,8.9833,1.1333
1159308985,TG,Savanes,Sansanné-Mango,10.3556,0.4756
1159308989,NI,Atlántico Sur,Bluefields,12.014,-83.7645
1159308991,SS,Lakes,Rumbek,6.8,29.6833
1159308993,SS,Western Equatoria,Yambio,4.5705,28.4163
1159308995,SS,Central Equatoria,Juba,4.85,31.6
1159308995,SS,Central Equatoria,Yei,4.0904,30.68
1159308997,SS,Upper Nile,Malakal,9.5333,31.65
1159309001,SS,Jonglei,Bor,6.2167,31.55
1159309003,SS,Unity,Bentiu,9.25,29.8
1159309005,SS,Warrap,Gogrial,8.5337,28.1167
1159309007,SS,Western Bahr el Ghazal,Wau,7.7,27.9833
1159309009,SS,Eastern Equatoria,Torit,4.4167,32.5667
1159309011,CO,Cauca,Popayán,2.4411,-76.6061
1159309011,CO,Cauca,Santander de Quilichao,3.0083,-76.4839
1159309013,GW,Cacheu,Cacheu,12.278,-16.165
1159309015,GW,Oio,Farim,12.4833,-15.2167
1159309019,GW,Quinara,Fulacunda,11.773,-15.195
1159309021,GW,Bafatá,Bafatá,12.1719,-14.6575
1159309023,GW,Gabú,Gabú,12.2833,-14.2167
1159309025,GW,Tombali,Catió,11.2833,-15.25
1159309027,CM,Ouest,Bafoussam,5.4667,10.4167
1159309029,CM,Sud-Ouest,Limbe,4.0167,9.2167
1159309029,CM,Sud-Ouest,Kumba,4.6333,9.45
1159309029,CM,Sud-Ouest,Buea,4.1667,9.2333
1159309031,CM,Sud,Ébolowa,2.9,11.15
1159309033,HN,Valle,Nacaome,13.5333,-87.4833
1159309037,NI,Atlántico Norte,Siuna,13.7333,-84.7667
1159309039,SV,Cabañas,Sensuntepeque,13.8667,-88.6333
1159309041,SV,Cuscatlán,Cojutepeque,13.7167,-88.9333
1159309043,SV,La Libertad,Santa Tecla,13.6742,-89.2899
1159309045,SV,La Paz,Zacatecoluca,13.5,-88.8667
1159309047,SV,Sonsonate,Sonsonate,13.7167,-89.7167
1159309049,SV,San Salvador,San Salvador,13.6989,-89.1914
1159309049,SV,San Salvador,Soyapango,13.7472,-89.1639
1159309049,SV,San Salvador,Mejicanos,13.7403,-89.2131
1159309049,SV,San Salvador,Apopa,13.8,-89.1833
1159309049,SV,San Salvador,Delgado,13.7167,-89.1667
1159309049,SV,San Salvador,Ilopango,13.7,-89.1167
1159309051,SV,La Unión,La Unión,13.3369,-87.8439
1159309055,SV,Morazán,San Francisco,13.7,-88.1
1159309057,SV,San Miguel,San Miguel,13.4833,-88.1833
1159309059,SV,San Vicente,San Vicente,13.6333,-88.8
1159309061,SV,Usulután,Usulután,13.35,-88.45
1159309063,NI,Carazo,Diriamba,11.85,-86.2333
1159309065,NI,Granada,Granada,11.93,-85.9561
1159309067,NI,Jinotega,Jinotega,13.0833,-86.0
1159309069,NI,León,León,12.4333,-86.8833
1159309073,NI,Managua,Managua,12.15,-86.2667
1159309073,NI,Managua,Tipitapa,12.1973,-86.0971
1159309075,NI,Masaya,Masaya,11.9667,-86.1
1159309077,NI,Chinandega,Chinandega,12.6242,-87.1297
1159309079,NI,Estelí,Estelí,13.0833,-86.35
1159309081,NI,Madriz,Somoto,13.4833,-86.5833
1159309083,NI,Matagalpa,Matagalpa,12.9167,-85.9167
1159309085,NI,Nueva Segovia,Ocotal,13.6333,-86.4833
1159309087,NI,Boaco,Boaco,12.4722,-85.6586
1159309091,NI,Chontales,Juigalpa,12.0833,-85.4
1159309093,HN,Atlántida,La Ceiba,15.78,-86.7878
1159309095,HN,Colón,Tocoa,15.6833,-86.0
1159309097,HN,Francisco Morazán,Comayagüela,14.0833,-87.2167
1159309097,HN,Francisco Morazán,Tegucigalpa,14.0942,-87.2067
1159309099,HN,Gracias a Dios,Puerto Lempira,15.2653,-83.7744
1159309101,HN,Olancho,Catacamas,14.8,-85.9
1159309103,HN,Yoro,El Progreso,15.4,-87.8
1159309105,HN,Comayagua,Comayagua,14.46,-87.65
1159309109,HN,Cortés,San Pedro Sula,15.5,-88.0333
1159309109,HN,Cortés,Choloma,15.6333,-88.0
1159309109,HN,Cortés,Villanueva,15.3167,-88.0167
1159309111,HN,Intibucá,La Esperanza,14.3,-88.1833
1159309113,HN,La Paz,La Paz,14.3169,-87.6831
1159309115,HN,Santa Bárbara,Santa Bárbara,14.9167,-88.2333
1159309117,HN,Copán,Santa Rosa de Copán,14.7667,-88.7833
1159309119,HN,Lempira,Gracias,14.5833,-88.5833
1159309121,HN,Ocotepeque,San Marcos,14.38,-88.92
1159309123,HN,Choluteca,Ciudad Choluteca,13.3167,-87.2167
1159309127,HN,El Paraíso,Yuscarán,13.9433,-86.8667
1159309129,HN,Islas de la Bahía,Roatán,16.33,-86.519
1159309131,SN,Kolda,Kolda,12.8958,-14.9408
1159309133,SN,Ziguinchor,Ziguinchor,12.5833,-16.2667
1159309135,SN,Tambacounda,Tambacounda,13.7689,-13.6672
1159309137,SA,Jizan,Jāzān,16.8892,42.5611
1159309139,BZ,Stann Creek,Dangriga,16.9667,-88.2167
1159309145,YE,Al Mahrah,Al Ghayz̧ah,16.2394,52.1638
1159309147,YE,Al Bayda',Radā‘,14.4295,44.8341
1159309149,YE,Al Dali',Aḑ Ḑāli‘,13.6957,44.7314
1159309151,YE,Al Jawf,Al Ḩazm,16.1641,44.7769
1159309153,YE,Shabwah,‘Ataq,14.55,46.8
1159309155,YE,Ma'rib,Ma’rib,15.4228,45.3375
1159309157,TH,Krabi,Krabi,8.0592,98.9189
1159309159,TH,Phatthalung,Phatthalung,7.6178,100.0778
1159309163,TH,Songkhla,Hat Yai,7.0167,100.4667
1159309165,TH,Trang,Trang,7.5561,99.6114
1159309167,TH,Yala,Yala,6.5397,101.2811
1159309169,TH,Chiang Rai,Chiang Rai,19.9094,99.8275
1159309171,TH,Chiang Mai,Chiang Mai,18.7889,98.9833
1159309173,TH,Lampang,Lampang,18.3,99.5
1159309175,TH,Lamphun,Lamphun,18.5865,99.0121
1159309177,TH,Nan,Nan,18.7893,100.7766
1159309181,TH,Phayao,Phayao,19.1652,99.9036
1159309183,TH,Phrae,Phrae,18.1436,100.1417
1159309185,TH,Phitsanulok,Phitsanulok,16.8158,100.2636
1159309187,TH,Sukhothai,Sawankhalok,17.3099,99.8263
1159309189,TH,Uttaradit,Uttaradit,17.6256,100.0942
1159309191,TH,Kanchanaburi,Tha Muang,13.9611,99.6411
1159309193,TH,Kamphaeng Phet,Kamphaeng Phet,16.4811,99.5222
1159309195,SD,Western Darfur,El Geneina,13.45,22.44
1159309199,SD,Southern Darfur,Nyala,12.05,24.8833
1159309201,SD,Khartoum,Khartoum,15.6031,32.5265
1159309201,SD,Khartoum,Omdurman,15.6835,32.4629
1159309201,SD,Khartoum,Khartoum North,15.6333,32.6333
1159309203,SD,Gezira,Wad Medani,14.4,33.51
1159309203,SD,Gezira,Al Manāqil,14.2504,32.98
1159309205,SD,Gedarif,Gedaref,14.0333,35.3833
1159309207,SD,River Nile,Shendi,16.6805,33.42
1159309207,SD,River Nile,Atbara,17.7167,33.9833
1159309207,SD,River Nile,EdDamer,17.59,33.96
1159309209,SD,Northern,Dongola,19.1666,30.4833
1159309211,SD,White Nile,Kūstī,13.17,32.66
1159309213,SD,Sennar,Sannār,13.55,33.6
1159309217,SD,North Darfur,El Fasher,13.63,25.35
1159309219,SD,South Kordufan,Kadugli,11.01,29.7
1159309221,SD,North Kordufan,El Obeid,13.1833,30.2167
1159309221,SD,North Kordufan,An Nuhūd,12.6904,28.42
1159309223,SD,Kassala,Kassala,15.45,36.4
1159309225,VN,Đắk Lắk,Buôn Ma Thuột,12.6667,108.05
1159309227,VN,Gia Lai,Pleiku,13.9715,108.0147
1159309229,NE,Diffa,Diffa,13.3171,12.6089
1159309231,NE,Agadez,Agadez,16.9959,7.9828
1159309235,NE,Maradi,Maradi,13.4916,7.0964
1159309237,NE,Zinder,Zinder,13.8,8.9833
1159309239,NE,Dosso,Gaya,11.8878,3.4467
1159309241,NE,Niamey,Niamey,13.5086,2.1111
1159309243,NE,Tahoua,Tahoua,14.9,5.2599
1159309245,MX,Baja California Sur,La Paz,24.1422,-110.3108
1159309247,SA,Tabuk,Tabūk,28.3838,36.555
1159309249,AE,Ras Al Khaymah,Ra’s al Khaymah,25.7915,55.9428
1159309253,AE,Umm Al Qaywayn,Umm al Qaywayn,25.5653,55.5533
1159309255,AE,Fujayrah,Al Fujayrah,25.1308,56.3347
1159309259,AE,Ajman,‘Ajmān,25.3994,55.4797
1159309263,MX,Sonora,Hermosillo,29.0989,-110.9542
1159309263,MX,Sonora,Mazatán,29.0167,-110.1333
1159309263,MX,Sonora,Ciudad Obregón,27.4939,-109.9389
1159309263,MX,Sonora,Heroica Nogales,31.3186,-110.9458
1159309263,MX,Sonora,San Luis Río Colorado,32.4767,-114.7625
1159309263,MX,Sonora,Navojoa,27.0813,-109.4461
1159309263,MX,Sonora,Heroica Guaymas,27.9183,-110.8989
1159309265,MX,Baja California,Tijuana,32.525,-117.0333
1159309265,MX,Baja California,Mexicali,32.622652,-115.451977
1159309265,MX,Baja California,Ensenada,31.8578,-116.6058
1159309267,NP,Bheri,Nepālgañj,28.05,81.6167
1159309271,NP,Dhawalagiri,Bāglung,28.2667,83.5833
1159309273,NP,Karnali,Jumlā,29.25,82.2167
1159309275,NP,Lumbini,Butwāl,27.7,83.45
1159309277,NP,Mahakali,Dadeldhurā,29.3,80.6
1159309279,NP,Seti,Dhangaḍhi̇̄,28.6833,80.6
1159309281,NP,Bagmati,Kathmandu,27.7167,85.3667
1159309281,NP,Bagmati,Jitpur,27.6666,85.3333
1159309283,NP,Janakpur,Janakpur,26.7122,85.9217
1159309285,NP,Narayani,Bharatpur,27.6833,84.4333
1159309285,NP,Narayani,Birgañj,27.0,84.8667
1159309289,NP,Sagarmatha,Hanumānnagar,26.5394,86.7483
1159309291,NP,Bhojpur,Birāṭnagar,26.4833,87.2833
1159309291,NP,Bhojpur,Dharān,26.8167,87.2667
1159309293,NP,Mechi,Īlām,26.908,87.926
1159309295,SA,Al Madinah,Medina,24.4667,39.6
1159309295,SA,Al Madinah,Yanbu‘,24.0943,38.0493
1159309297,SA,Al Quassim,Buraydah,26.3333,43.9667
1159309299,SA,Ha'il,Ḩā’il,27.5236,41.7001
1159309301,SA,Al Hudud ash Shamaliyah,Arar,30.9833,41.0167
1159309303,SA,Al Jawf,Sakākā,30.0,40.1333
1159309307,SA,Al Bahah,Al Bāḩah,20.0129,41.4677
1159309309,SA,`Asir,Khamīs Mushayţ,18.3,42.7333
1159309309,SA,`Asir,Abhā,18.2167,42.5
1159309311,SA,Makkah,Jeddah,21.5428,39.1728
1159309311,SA,Makkah,Mecca,21.4225,39.8261
1159309311,SA,Makkah,Aţ Ţā’if,21.2667,40.4167
1159309311,SA,Makkah,Al Ḩawīyah,21.4411,40.4975
1159309313,JO,Aqaba,Al ‘Aqabah,29.5167,35.0
1159309315,JO,Mafraq,Al Mafraq,32.2833,36.2333
1159309317,JO,Amman,Amman,31.95,35.9333
1159309319,JO,Tafilah,Aţ Ţafīlah,30.8375,35.6042
1159309321,JO,Ma`an,Ma‘ān,30.192,35.736
1159309325,JO,Irbid,Irbid,32.5556,35.85
1159309327,JO,Ajlun,Sākib,32.2843,35.8092
1159309329,JO,Jarash,Jarash,32.2723,35.8914
1159309331,JO,Balqa,As Salţ,32.0333,35.7333
1159309333,JO,Madaba,Mādabā,31.7167,35.8
1159309335,JO,Karak,Al Karak,31.1833,35.7
1159309337,JO,Zarqa,Az Zarqā’,32.0833,36.1
1159309339,JP,Hyōgo,Kōbe,34.6913,135.183
1159309339,JP,Hyōgo,Nishinomiya-hama,34.7333,135.3333
1159309339,JP,Hyōgo,Ōakashichō,34.6431,134.9975
1159309339,JP,Hyōgo,Sandachō,34.8894,135.2253
1159309343,TN,Sfax,Sfax,34.74,10.76
1159309345,IT,Trapani,Marsala,37.7981,12.4342
1159309347,PK,F.A.T.A.,Parachinar,33.8992,70.1008
1159309349,PK,Punjab,Lahore,31.5497,74.3436
1159309349,PK,Punjab,Faisalabad,31.418,73.079
1159309349,PK,Punjab,Rawalpindi,33.6007,73.0679
1159309349,PK,Punjab,Gujranwala,32.15,74.1833
1159309349,PK,Punjab,Multan,30.1978,71.4711
1159309349,PK,Punjab,Bahawalpur,29.3956,71.6722
1159309349,PK,Punjab,Sargodha,32.0836,72.6711
1159309349,PK,Punjab,Sialkot City,32.5,74.5333
1159309349,PK,Punjab,Chiniot,31.7167,72.9833
1159309349,PK,Punjab,Shekhupura,31.7083,74.0
1159309349,PK,Punjab,Jhang City,31.2681,72.3181
1159309349,PK,Punjab,Dera Ghazi Khan,30.05,70.6333
1159309349,PK,Punjab,Gujrat,32.5736,74.0789
1159309349,PK,Punjab,Rahimyar Khan,28.4202,70.2952
1159309349,PK,Punjab,Kasur,31.1167,74.45
1159309349,PK,Punjab,Sahiwal,30.6706,73.1064
1159309349,PK,Punjab,Okara,30.81,73.4597
1159309349,PK,Punjab,Mandi Burewala,30.15,72.6833
1159309349,PK,Punjab,Saddiqabad,28.3006,70.1302
1159309349,PK,Punjab,Muridke,31.802,74.255
1159309349,PK,Punjab,Muzaffargarh,30.0703,71.1933
1159309349,PK,Punjab,Khanpur,28.6471,70.662
1159309349,PK,Punjab,Gojra,31.15,72.6833
1159309349,PK,Punjab,Mandi Bahauddin,32.5861,73.4917
1159309349,PK,Punjab,Bahawalnagar,29.9944,73.2536
1159309349,PK,Punjab,Pakpattan,30.35,73.4
1159309349,PK,Punjab,Ahmadpur East,29.1453,71.2617
1159309349,PK,Punjab,Vihari,30.0419,72.3528
1159309349,PK,Punjab,Jaranwala,31.3342,73.4194
1159309349,PK,Punjab,Kamalia,30.7258,72.6447
1159309349,PK,Punjab,Kot Addu,30.47,70.9644
1159309349,PK,Punjab,Khushab,32.2917,72.35
1159309349,PK,Punjab,Chishtian,29.7958,72.8578
1159309351,PK,Sind,Karachi,24.86,67.01
1159309351,PK,Sind,Hyderabad City,25.3792,68.3683
1159309351,PK,Sind,Sukkur,27.6995,68.8673
1159309351,PK,Sind,Larkana,27.56,68.2264
1159309351,PK,Sind,Nawabshah,26.2442,68.41
1159309351,PK,Sind,Mirpur Khas,25.5269,69.0111
1159309351,PK,Sind,Jacobabad,28.2769,68.4514
1159309351,PK,Sind,Dadu,26.7319,67.775
1159309351,PK,Sind,Tando Allahyar,25.4667,68.7167
1159309351,PK,Sind,Kandhkot,28.4,69.3
1159309353,PK,K.P.,Peshawar,34.0,71.5
1159309353,PK,K.P.,Saidu Sharif,34.75,72.3572
1159309353,PK,K.P.,Mardan,34.1958,72.0447
1159309353,PK,K.P.,Mingaora,34.7717,72.36
1159309353,PK,K.P.,Kohat,33.5869,71.4414
1159309353,PK,K.P.,Abbottabad,34.15,73.2167
1159309353,PK,K.P.,Nowshera,34.0153,71.9747
1159309353,PK,K.P.,Swabi,34.1167,72.4667
1159309353,PK,K.P.,Dera Ismail Khan,31.8167,70.9167
1159309353,PK,K.P.,Charsadda,34.1453,71.7308
1159309355,TN,Médenine,Medenine,33.3547,10.5053
1159309357,TN,Kebili,Kebili,33.705,8.965
1159309361,TN,Tataouine,Tataouine,32.9333,10.45
1159309363,TN,Tozeur,Tozeur,33.9197,8.1336
1159309365,TN,Manubah,Ariana,36.8625,10.1956
1159309367,TN,Béja,Béja,36.7256,9.1817
1159309369,TN,Ben Arous (Tunis Sud),Fouchana,36.6987,10.1693
1159309371,TN,Bizerte,Menzel Bourguiba,37.15,9.7833
1159309373,TN,Jendouba,Jendouba,36.5011,8.7803
1159309375,TN,Nabeul,Hammamet,36.4167,10.6
1159309379,TN,Tunis,Tunis,36.8008,10.18
1159309381,TN,Le Kef,El Kef,36.1667,8.7
1159309383,TN,Kassérine,Kasserine,35.1667,8.8333
1159309385,TN,Gabès,Métouia,33.96,10.0
1159309385,TN,Gabès,Gabès,33.8814,10.0983
1159309387,TN,Gafsa,Gafsa,34.4167,8.7833
1159309389,TN,Sidi Bou Zid,Sidi Bouzid,35.0381,9.4858
1159309391,TN,Siliana,Siliana,36.0819,9.3747
1159309393,TN,Mahdia,Mahdia,35.5047,11.0622
1159309397,AZ,Xocavənd,Cəbrayıl,39.4,47.0261
1159309401,AZ,Qubadli,Qubadlı,39.3439,46.5797
1159309403,IT,Caserta,Caserta,41.0667,14.3333
1159309405,AM,Syunik,Kapan,39.199525,46.396978
1159309407,AM,Vayots Dzor,Jermuk,39.85,45.6833
1159309409,JP,Fukui,Fukui,36.0641,136.2196
1159309411,JP,Kyōto,Kyōto,35.0111,135.7669
1159309415,JP,Nara,Nara,34.6833,135.7833
1159309415,JP,Nara,Kashiwara,34.5094,135.7925
1159309415,JP,Nara,Ikoma,34.6919,135.7006
1159309417,JP,Shiga,Ōtsu,35.0167,135.85
1159309417,JP,Shiga,Kusatsu,35.0167,135.9667
1159309417,JP,Shiga,Hikone,35.2744,136.2597
1159309417,JP,Shiga,Higashiōmi,35.1128,136.2078
1159309419,JP,Wakayama,Wakayama,34.2333,135.1667
1159309421,JP,Chiba,Chiba,35.6,140.1
1159309421,JP,Chiba,Matsudo,35.7878,139.9031
1159309421,JP,Chiba,Ichihara,35.4981,140.1156
1159309421,JP,Chiba,Yachiyo,35.7225,140.0997
1159309421,JP,Chiba,Narashino,35.6808,140.0267
1159309421,JP,Chiba,Misato,35.8303,139.8725
1159309421,JP,Chiba,Kisarazu,35.3761,139.9169
1159309421,JP,Chiba,Narita,35.7833,140.3167
1159309421,JP,Chiba,Abiko,35.8642,140.0282
1159309421,JP,Chiba,Kamagaya,35.7769,140.0008
1159309421,JP,Chiba,Inzai,35.8322,140.1458
1159309423,JP,Ibaraki,Mito,36.3667,140.4667
1159309423,JP,Ibaraki,Tsukuba-kenkyūgakuen-toshi,36.0333,140.0667
1159309423,JP,Ibaraki,Hitachi,36.6,140.65
1159309423,JP,Ibaraki,Hitachi-Naka,36.3964,140.5344
1159309423,JP,Ibaraki,Koga,36.1833,139.7
1159309423,JP,Ibaraki,Toride,35.9114,140.0503
1159309425,AZ,Oğuz,Oğuz,41.0714,47.4653
1159309427,AZ,Qax,Qax,41.4194,46.9181
1159309429,AZ,Şəki,Kiş,41.2594,47.1881
1159309433,AZ,Quba,Quba,41.3653,48.5264
1159309437,AZ,Xaçmaz,Xaçmaz,41.4681,48.8028
1159309439,AZ,Zaqatala,Zaqatala,41.6336,46.6433
1159309441,IT,Grosseto,Grosseto,42.7722,11.1089
1159309443,AL,Korçë,Korçë,40.6167,20.7667
1159309445,AL,Berat,Berat,40.7049,19.9497
1159309447,AL,Elbasan,Elbasan,41.1125,20.0822
1159309451,AL,Gjirokastër,Gjirokastër,40.0758,20.1389
1159309453,AL,Dibër,Peshkopi,41.6831,20.4289
1159309455,AL,Lezhë,Laç,41.6353,19.7131
1159309457,AL,Durrës,Tirana,41.33,19.82
1159309457,AL,Durrës,Kamëz,41.3833,19.7667
1159309459,KG,Bishkek,Bishkek,42.8667,74.5667
1159309461,KG,Chuy,Kara-Balta,42.8306,73.8857
1159309463,KG,Ysyk-Köl,Karakol,42.5,78.3833
1159309465,KG,Naryn,Naryn,41.4333,76.0
1159309469,KG,Batken,Kyzyl-Kyya,40.25,72.1167
1159309471,KG,Jalal-Abad,Jalal-Abad,40.9375,72.9861
1159309473,KG,Talas,Talas,42.5184,72.2429
1159309475,KG,Osh,Osh,40.5333,72.7833
1159309477,XK,Peć,Pejë,42.65,20.3
1159309479,XK,Gnjilane,Gjilan,42.47,21.47
1159309481,XK,Prizren,Prizren,42.2167,20.7333
1159309483,XK,Zvečan,Zveçan,42.9,20.8333
1159309487,XK,Kosovo Polje,Bresje,42.6264,21.0874
1159309489,ME,Podgorica,Podgorica,42.4397,19.2661
1159309493,ME,Šavnik,Šavnik,42.95,19.1
1159309495,ME,Žabljak,Žabljak,43.1583,19.1303
1159309497,ES,Barcelona,Barcelona,41.3825,2.1769
1159309497,ES,Barcelona,Tarrasa,41.5611,2.0081
1159309497,ES,Barcelona,Badalona,41.4333,2.2333
1159309497,ES,Barcelona,Sabadell,41.5483,2.1075
1159309497,ES,Barcelona,Mataró,41.5421,2.4445
1159309499,RS,Moravicki,Čačak,43.8914,20.3497
1159309501,RS,Nišavski,Niš,43.3192,21.8961
1159309505,RS,Podunavski,Smederevska Palanka,44.3655,20.9587
1159309507,RS,Pomoravski,Ćuprija,43.9231,21.3686
1159309509,RS,Pomoravski,Kruševac,43.5833,21.3267
1159309511,RS,Raški,Kraljevo,43.7234,20.687
1159309513,RS,Toplicki,Prokuplje,43.2339,21.5861
1159309515,RS,Grad Beograd,Belgrade,44.8167,20.4667
1159309515,RS,Grad Beograd,Zemun,44.85,20.4
1159309517,RS,Kolubarski,Valjevo,44.2667,19.8833
1159309519,RS,Macvanski,Loznica,44.5333,19.2258
1159309523,RS,Šumadijski,Kragujevac,44.0142,20.9394
1159309525,RS,Pcinjski,Vranje,42.5542,21.8972
1159309527,RS,Jablanicki,Leskovac,42.9981,21.9461
1159309529,RS,Zajecarski,Sokobanja,43.6394,21.8694
1159309531,RS,Branicevski,Požarevac,44.62,21.1897
1159309533,JP,Hokkaidō,Sapporo,43.0621,141.3544
1159309533,JP,Hokkaidō,Asahikawa,43.7706,142.365
1159309533,JP,Hokkaidō,Hakodate,41.7733,140.7261
1159309533,JP,Hokkaidō,Ashino,42.975,144.3747
1159309533,JP,Hokkaidō,Takaoka,42.6504,141.55
1159309533,JP,Hokkaidō,Beppuchō,42.9304,143.17
1159309533,JP,Hokkaidō,Ebetsu,43.1039,141.5361
1159309533,JP,Hokkaidō,Kōenchō,43.8081,143.8942
1159309533,JP,Hokkaidō,Otaru,43.1833,141.0
1159309535,RU,Crimea,Simferopol,44.9484,34.1
1159309535,RU,Crimea,Yevpatoriia,45.2,33.3583
1159309537,RS,Zapadno-Backi,Sombor,45.78,19.12
1159309541,RS,Severno-Backi,Subotica,46.0983,19.67
1159309543,RS,Severno-Banatski,Kikinda,45.8244,20.4592
1159309545,RS,Sremski,Irig,45.1011,19.8583
1159309547,US,Washington,Seattle,47.6211,-122.3244
1159309547,US,Washington,Spokane,47.6671,-117.433
1159309547,US,Washington,Kennewick,46.1978,-119.1732
1159309547,US,Washington,Bremerton,47.5436,-122.7122
1159309547,US,Washington,Tacoma,47.2431,-122.4531
1159309547,US,Washington,Olympia,47.0417,-122.8959
1159309547,US,Washington,Vancouver,45.6366,-122.5967
1159309547,US,Washington,Marysville,48.0809,-122.1561
1159309547,US,Washington,Bellevue,47.5951,-122.1535
1159309547,US,Washington,Yakima,46.5923,-120.5496
1159309547,US,Washington,Kent,47.3887,-122.2129
1159309547,US,Washington,Bellingham,48.7543,-122.4687
1159309547,US,Washington,Everett,47.9525,-122.1669
1159309547,US,Washington,Renton,47.4784,-122.1919
1159309547,US,Washington,Spokane Valley,47.6626,-117.2346
1159309549,US,Oregon,Portland,45.5372,-122.65
1159309549,US,Oregon,Eugene,44.0563,-123.1173
1159309549,US,Oregon,Salem,44.9231,-123.0246
1159309549,US,Oregon,Medford,42.3372,-122.8537
1159309549,US,Oregon,Bend,44.0562,-121.3087
1159309549,US,Oregon,Gresham,45.5023,-122.4413
1159309549,US,Oregon,Hillsboro,45.5272,-122.9361
1159309549,US,Oregon,Jacksonville,42.1882,-123.0465
1159309551,SI,Dobrovnik,Dobrovnik,46.6514,16.3525
1159309553,SI,Markovci,Markovci,46.3833,15.95
1159309555,SI,Cankova,Tišina,46.6556,16.0933
1159309559,SI,Gornja Radgona,Gornja Radgona,46.681,15.9883
1159309561,SI,Gornji Petrovci,Gornji Petrovci,46.8053,16.2225
1159309563,IT,Pescara,Pescara,42.4643,14.2142
1159309565,IT,Roma,Rome,41.8931,12.4828
1159309567,IT,Ancona,Ancona,43.6167,13.5167
1159309569,IT,Perugia,Perugia,43.1121,12.3888
1159309571,IT,Modena,Modena,44.6458,10.9257
1159309573,IT,Genova,Genoa,44.41260238095235,8.9466656641603954
1159309577,IT,Matera,Matera,40.6667,16.6
1159309579,IT,Cosenza,Cosenza,39.3,16.25
1159309581,IT,Campobasso,Campobasso,41.561,14.6684
1159309583,IT,Bari,Bari,41.1253,16.8667
1159309585,CA,Nova Scotia,Halifax,44.6475,-63.5906
1159309587,UA,Mykolayiv,Mykolaiv,46.9667,32.0
1159309589,UA,Chernihiv,Chernihiv,51.4939,31.2947
1159309591,UA,Rivne,Rivne,50.6197,26.2514
1159309595,UA,Chernivtsi,Chernivtsi,48.2908,25.9344
1159309597,UA,Ivano-Frankivs'k,Ivano-Frankivsk,48.9228,24.7106
1159309599,UA,Khmel'nyts'kyy,Khmelnytskyi,49.42,27.0
1159309599,UA,Khmel'nyts'kyy,Kamianets-Podilskyi,48.6806,26.5806
1159309601,UA,L'viv,Lviv,49.8419,24.0315
1159309601,UA,L'viv,Drohobych,49.35,23.5
1159309603,UA,Ternopil',Ternopil,49.5667,25.6
1159309605,UA,Transcarpathia,Uzhhorod,48.6239,22.295
1159309607,UA,Volyn,Lutsk,50.7478,25.3244
1159309609,UA,Cherkasy,Cherkasy,49.4444,32.0597
1159309613,UA,Kirovohrad,Kropyvnytskyi,48.5103,32.2667
1159309615,UA,Kiev,Bila Tserkva,49.7956,30.1167
1159309615,UA,Kiev,Brovary,50.5114,30.7903
1159309617,UA,Odessa,Odesa,46.4775,30.7326
1159309619,UA,Vinnytsya,Vinnytsia,49.2372,28.4672
1159309621,UA,Zhytomyr,Zhytomyr,50.2544,28.6578
1159309623,UA,Sumy,Sumy,50.9068,34.7992
1159309623,UA,Sumy,Konotop,51.2369,33.2027
1159309625,UA,Dnipropetrovs'k,Dnipro,48.45,34.9833
1159309625,UA,Dnipropetrovs'k,Kryvyi Rih,47.9086,33.3433
1159309625,UA,Dnipropetrovs'k,Kamianske,48.5076,34.6132
1159309625,UA,Dnipropetrovs'k,Nikopol,47.5772,34.3575
1159309625,UA,Dnipropetrovs'k,Pavlohrad,48.52,35.87
1159309627,UA,Donets'k,Donetsk,48.0089,37.8042
1159309627,UA,Donets'k,Mariupol,47.1306,37.5639
1159309627,UA,Donets'k,Makiivka,48.0556,37.9611
1159309627,UA,Donets'k,Horlivka,48.3336,38.0925
1159309627,UA,Donets'k,Kramatorsk,48.7208,37.5556
1159309627,UA,Donets'k,Sloviansk,48.87,37.625
1159309631,UA,Kharkiv,Kharkiv,50.0,36.2292
1159309633,UA,Luhans'k,Luhansk,48.5833,39.3333
1159309633,UA,Luhans'k,Sievierodonetsk,48.95,38.4833
1159309633,UA,Luhans'k,Khrustalnyi,48.1214,38.9453
1159309633,UA,Luhans'k,Alchevsk,48.4672,38.7983
1159309635,UA,Poltava,Poltava,49.5744,34.5686
1159309635,UA,Poltava,Kremenchuk,49.0775,33.4239
1159309637,UA,Zaporizhzhya,Zaporizhzhia,47.8378,35.1383
1159309637,UA,Zaporizhzhya,Melitopol,46.8333,35.3667
1159309637,UA,Zaporizhzhya,Berdiansk,46.7598,36.7845
1159309639,NL,Friesland,Leeuwarden,53.2,5.7833
1159309641,NL,Drenthe,Emmen,52.7833,6.9
1159309643,NL,Gelderland,Apeldoorn,52.21,5.97
1159309643,NL,Gelderland,Arnhem,51.9833,5.9167
1159309645,NL,Limburg,Maastricht,50.8483,5.6889
1159309649,NL,Overijssel,Zwolle,52.5125,6.0944
1159309651,NL,Groningen,Groningen,53.2167,6.5667
1159309653,NO,Østfold,Fredrikstad,59.2167,10.95
1159309655,NO,Rogaland,Sandnes,58.85,5.7333
1159309657,NO,Hordaland,Bergen,60.3925,5.3233
1159309659,NO,Sogn og Fjordane,Sogndal,61.2297,7.1006
1159309661,NO,Nord-Trøndelag,Stjørdal,63.475,11.1708
1159309663,NO,Troms,Lenvik,69.3836,17.9675
1159309667,CA,Yukon,Whitehorse,60.7029,-135.0691
1159309669,NO,Vest-Agder,Kristiansand,58.1467,7.9956
1159309671,NO,Akershus,Nordre Fåle,59.75,10.8667
1159309673,NO,Buskerud,Drammen,59.7439,10.2045
1159309675,NO,Hedmark,Ringsaker,61.0242,10.8019
1159309677,NO,Oppland,Lillehammer,61.1146,10.4674
1159309679,NO,Oslo,Oslo,59.9111,10.7528
1159309681,NO,Telemark,Skien,59.2096,9.609
1159309685,NO,Vestfold,Sandefjord,59.1288,10.2197
1159309687,CA,Ontario,Toronto,43.7417,-79.3733
1159309687,CA,Ontario,Ottawa,45.4247,-75.695
1159309687,CA,Ontario,Mississauga,43.6,-79.65
1159309687,CA,Ontario,Hamilton,43.2567,-79.8692
1159309687,CA,Ontario,Brampton,43.6833,-79.7667
1159309687,CA,Ontario,Kitchener,43.4186,-80.4728
1159309687,CA,Ontario,London,42.9836,-81.2497
1159309687,CA,Ontario,Markham,43.8767,-79.2633
1159309687,CA,Ontario,St. Catharines,43.1833,-79.2333
1159309687,CA,Ontario,Niagara Falls,43.06,-79.1067
1159309687,CA,Ontario,Vaughan,43.8333,-79.5
1159309687,CA,Ontario,Windsor,42.2833,-83.0
1159309687,CA,Ontario,Richmond Hill,43.8667,-79.4333
1159309687,CA,Ontario,Oakville,43.45,-79.6833
1159309687,CA,Ontario,Burlington,43.3167,-79.8
1159309687,CA,Ontario,Barrie,44.3711,-79.6769
1159309687,CA,Ontario,Oshawa,43.9,-78.85
1159309687,CA,Ontario,Guelph,43.55,-80.25
1159309687,CA,Ontario,Cambridge,43.3972,-80.3114
1159309687,CA,Ontario,Whitby,43.8833,-78.9417
1159309687,CA,Ontario,Ajax,43.8583,-79.0364
1159309687,CA,Ontario,Milton,43.5083,-79.8833
1159309687,CA,Ontario,Thunder Bay,48.3822,-89.2461
1159309687,CA,Ontario,Waterloo,43.4667,-80.5167
1159309687,CA,Ontario,Chatham,42.4229,-82.1324
1159309689,SJ,Svalbard,Longyearbyen,78.2167,15.6333
1159309693,PG,Madang,Madang,-5.2248,145.7853
1159309695,PG,North Solomons,Arawa,-6.228,155.566
1159309697,ID,Kalimantan Selatan,Banjarmasin,-3.3333,114.5833
1159309697,ID,Kalimantan Selatan,Banjarbaru,-3.4667,114.75
1159309697,ID,Kalimantan Selatan,Martapura,-3.4135,114.8365
1159309699,IE,Mayo,Castlebar,53.85,-9.3
1159309703,DE,Schleswig-Holstein,Kiel,54.3233,10.1394
1159309703,DE,Schleswig-Holstein,Lübeck,53.8697,10.6864
1159309705,AR,Buenos Aires,Mar del Plata,-38.0,-57.55
1159309705,AR,Buenos Aires,Florencio Varela,-34.8167,-58.2833
1159309705,AR,Buenos Aires,Bahía Blanca,-38.7167,-62.2667
1159309705,AR,Buenos Aires,Merlo,-34.6653,-58.7275
1159309705,AR,Buenos Aires,González Catán,-34.7708,-58.6464
1159309705,AR,Buenos Aires,Quilmes,-34.7167,-58.2667
1159309705,AR,Buenos Aires,Banfield,-34.75,-58.3833
1159309705,AR,Buenos Aires,José C. Paz,-34.5167,-58.7667
1159309705,AR,Buenos Aires,La Plata,-34.9333,-57.95
1159309705,AR,Buenos Aires,Isidro Casanova,-34.7,-58.5833
1159309705,AR,Buenos Aires,Berazategui,-34.7679,-58.2133
1159309705,AR,Buenos Aires,José María Ezeiza,-34.8333,-58.5167
1159309705,AR,Buenos Aires,San Nicolás de los Arroyos,-33.3333,-60.2167
1159309705,AR,Buenos Aires,San Miguel,-34.5333,-58.7167
1159309705,AR,Buenos Aires,Rafael Castillo,-34.7167,-58.6167
1159309705,AR,Buenos Aires,Florencio Varela,-34.8167,-58.3833
1159309705,AR,Buenos Aires,Ituzaingó,-34.6582,-58.6672
1159309705,AR,Buenos Aires,Temperley,-34.7667,-58.3833
1159309705,AR,Buenos Aires,Ramos Mejía,-34.65,-58.5667
1159309705,AR,Buenos Aires,Tandil,-37.3167,-59.1333
1159309705,AR,Buenos Aires,Lomas de Zamora,-34.7667,-58.4
1159309705,AR,Buenos Aires,Bernal,-34.7,-58.2833
1159309705,AR,Buenos Aires,Esteban Echeverría,-34.8167,-58.4667
1159309705,AR,Buenos Aires,Castelar,-34.65,-58.65
1159309705,AR,Buenos Aires,Berisso,-34.8667,-57.8667
1159309705,AR,Buenos Aires,Libertad,-34.6833,-58.6833
1159309707,LS,Berea,Teyateyaneng,-29.15,27.7333
1159309709,LS,Maseru,Maseru,-29.31,27.48
1159309711,LS,Mohale's Hoek,Mohale’s Hoek,-30.159,27.48
1159309713,LS,Quthing,Quthing,-30.4001,27.7002
1159309717,LS,Leribe,Leribe,-28.8734,28.0416
1159309721,LS,Mokhotlong,Mokhotlong,-29.2885,29.0656
1159309725,LS,Thaba-Tseka,Thaba-Tseka,-29.5333,28.6
1159309727,BR,São Paulo,São Paulo,-23.5504,-46.6339
1159309727,BR,São Paulo,Guarulhos,-23.4667,-46.5333
1159309727,BR,São Paulo,Campinas,-22.9009,-47.0573
1159309727,BR,São Paulo,São Bernardo do Campo,-23.6939,-46.565
1159309727,BR,São Paulo,Santo André,-23.6572,-46.5333
1159309727,BR,São Paulo,Osasco,-23.5328,-46.7919
1159309727,BR,São Paulo,São José dos Campos,-23.1789,-45.8869
1159309727,BR,São Paulo,Ribeirão Prêto,-21.1783,-47.8067
1159309727,BR,São Paulo,Sorocaba,-23.5019,-47.4578
1159309727,BR,São Paulo,Americana,-22.7392,-47.3314
1159309727,BR,São Paulo,Mauá,-23.6678,-46.4608
1159309727,BR,São Paulo,São José do Rio Prêto,-20.82,-49.3789
1159309727,BR,São Paulo,Santos,-23.9608,-46.3339
1159309727,BR,São Paulo,Mogi das Cruzes,-23.5228,-46.1931
1159309727,BR,São Paulo,Diadema,-23.6858,-46.6228
1159309727,BR,São Paulo,Jundiaí,-23.1864,-46.8842
1159309727,BR,São Paulo,Carapicuíba,-23.5228,-46.8358
1159309727,BR,São Paulo,Bauru,-22.3147,-49.0606
1159309727,BR,São Paulo,São Vicente,-23.9633,-46.3922
1159309727,BR,São Paulo,Itaquaquecetuba,-23.4864,-46.3486
1159309727,BR,São Paulo,Piracicaba,-22.725,-47.6489
1159309727,BR,São Paulo,Franca,-20.5389,-47.4008
1159309727,BR,São Paulo,Guarujá,-23.9936,-46.2564
1159309727,BR,São Paulo,Taubaté,-23.0333,-45.55
1159309727,BR,São Paulo,Praia Grande,-24.0058,-46.4028
1159309727,BR,São Paulo,Limeira,-22.5647,-47.4017
1159309727,BR,São Paulo,Suzano,-23.5428,-46.3108
1159309727,BR,São Paulo,Taboão da Serra,-23.6019,-46.7528
1159309727,BR,São Paulo,Sumaré,-22.8219,-47.2669
1159309727,BR,São Paulo,Barueri,-23.5111,-46.8764
1159309727,BR,São Paulo,São Carlos,-22.0178,-47.8908
1159309727,BR,São Paulo,Marília,-22.2139,-49.9458
1159309727,BR,São Paulo,Indaiatuba,-23.0903,-47.2181
1159309727,BR,São Paulo,Cotia,-23.6039,-46.9189
1159309727,BR,São Paulo,Jacareí,-23.305,-45.9658
1159309727,BR,São Paulo,Araraquara,-21.7939,-48.1758
1159309727,BR,São Paulo,Itapevi,-23.5489,-46.9342
1159309727,BR,São Paulo,Presidente Prudente,-22.1258,-51.3889
1159309727,BR,São Paulo,Hortolândia,-22.8583,-47.22
1159309727,BR,São Paulo,Rio Claro,-22.4108,-47.5608
1159309727,BR,São Paulo,Araçatuba,-21.2089,-50.4328
1159309727,BR,São Paulo,Santa Bárbara d’Oeste,-22.7539,-47.4139
1159309727,BR,São Paulo,Ferraz de Vasconcelos,-23.5411,-46.3689
1159309727,BR,São Paulo,Francisco Morato,-23.2817,-46.7425
1159309727,BR,São Paulo,Itapecerica da Serra,-23.7172,-46.8494
1159309727,BR,São Paulo,Itu,-23.2642,-47.2992
1159309727,BR,São Paulo,Bragança Paulista,-22.9189,-46.5425
1159309727,BR,São Paulo,Pindamonhangaba,-22.9239,-45.4617
1159309727,BR,São Paulo,São Caetano do Sul,-23.6228,-46.5508
1159309727,BR,São Paulo,Itapetininga,-23.5917,-48.0531
1159309727,BR,São Paulo,Mogi Guaçu,-22.3719,-46.9419
1159309727,BR,São Paulo,Franco da Rocha,-23.3286,-46.7244
1159309727,BR,São Paulo,Jaú,-22.2958,-48.5578
1159309727,BR,São Paulo,Botucatu,-22.8858,-48.445
1159309727,BR,São Paulo,Atibaia,-23.1172,-46.5506
1159309727,BR,São Paulo,Araras,-22.3569,-47.3839
1159309727,BR,São Paulo,Cubatão,-23.8953,-46.4256
1159309727,BR,São Paulo,Santana de Parnaíba,-23.4439,-46.9178
1159309727,BR,São Paulo,Ribeirão Pires,-23.7108,-46.4128
1159309727,BR,São Paulo,Valinhos,-22.9708,-46.9958
1159309727,BR,São Paulo,Sertãozinho,-21.1378,-47.99
1159309727,BR,São Paulo,Catanduva,-21.1378,-48.9728
1159309727,BR,São Paulo,Barretos,-20.5569,-48.5678
1159309727,BR,São Paulo,Guaratinguetá,-22.8167,-45.2278
1159309727,BR,São Paulo,Jandira,-23.5278,-46.9028
1159309727,BR,São Paulo,Birigui,-21.2889,-50.34
1159309727,BR,São Paulo,Votorantim,-23.5469,-47.4378
1159309727,BR,São Paulo,Tatuí,-23.3556,-47.8569
1159309727,BR,São Paulo,Várzea Paulista,-23.2108,-46.8278
1159309727,BR,São Paulo,Salto,-23.2008,-47.2869
1159309727,BR,São Paulo,Poá,-23.5286,-46.345
1159309727,BR,São Paulo,Itatiba,-23.0058,-46.8389
1159309727,BR,São Paulo,Ourinhos,-22.9789,-49.8708
1159309727,BR,São Paulo,Assis,-22.6619,-50.4119
1159309727,BR,São Paulo,Mairiporã,-23.3189,-46.5869
1159309729,NC,Sud,Nouméa,-22.2625,166.4443
1159309731,ZA,Northern Cape,Kimberley,-28.7386,24.7586
1159309731,ZA,Northern Cape,Upington,-28.4572,21.2425
1159309733,ZA,Western Cape,Cape Town,-33.925,18.425
1159309733,ZA,Western Cape,George,-33.9667,22.45
1159309733,ZA,Western Cape,Paarl,-33.7242,18.9558
1159309735,ZA,North West,Klerksdorp,-26.8667,26.6667
1159309735,ZA,North West,Rustenburg,-25.6667,27.2336
1159309735,ZA,North West,Potchefstroom,-26.715,27.1033
1159309735,ZA,North West,Brits,-25.6167,27.7667
1159309735,ZA,North West,Mmabatho,-25.85,25.6333
1159309739,ZA,Free State,Welkom,-27.9831,26.7208
1159309739,ZA,Free State,Bloemfontein,-29.1,26.2167
1159309739,ZA,Free State,Kroonstad,-27.6456,27.2317
1159309741,ZA,Gauteng,Johannesburg,-26.2044,28.0416
1159309741,ZA,Gauteng,Vereeniging,-26.6736,27.9319
1159309741,ZA,Gauteng,Pretoria,-25.7464,28.1881
1159309741,ZA,Gauteng,Randburg,-26.0936,28.0064
1159309741,ZA,Gauteng,Roodepoort,-26.1625,27.8725
1159309741,ZA,Gauteng,Centurion,-25.8603,28.1894
1159309741,ZA,Gauteng,Springs,-26.2547,28.4428
1159309741,ZA,Gauteng,Sandton,-26.107,28.0517
1159309741,ZA,Gauteng,Benoni,-26.1883,28.3206
1159309741,ZA,Gauteng,Alberton,-26.2672,28.1219
1159309743,ZA,Mpumalanga,Middelburg,-25.7684,29.4783
1159309743,ZA,Mpumalanga,Bethal,-26.45,29.45
1159309745,ZA,Limpopo,Polokwane,-23.9,29.45
1159309747,ZA,KwaZulu-Natal,Pietermaritzburg,-29.5833,30.4167
1159309747,ZA,KwaZulu-Natal,Durban,-29.8583,31.025
1159309747,ZA,KwaZulu-Natal,Vryheid,-27.7694,30.7914
1159309749,AR,Santa Cruz,Río Gallegos,-51.6333,-69.2333
1159309751,AR,San Juan,San Juan,-31.5375,-68.5364
1159309753,AR,Chubut,Comodoro Rivadavia,-45.8667,-67.5
1159309753,AR,Chubut,Puerto Madryn,-42.773,-65.0366
1159309757,AR,Mendoza,Godoy Cruz,-32.9167,-68.8333
1159309757,AR,Mendoza,San Martín,-33.0806,-68.4706
1159309757,AR,Mendoza,Mendoza,-32.8833,-68.8333
1159309757,AR,Mendoza,San Rafael,-34.6175,-68.3356
1159309759,AR,Neuquén,Neuquén,-38.9573,-68.0455
1159309761,AR,La Pampa,Santa Rosa,-36.6203,-64.2906
1159309763,AR,Río Negro,San Carlos de Bariloche,-41.15,-71.3
1159309765,AR,San Luis,San Luis,-33.2994,-66.3392
1159309765,AR,San Luis,Villa Mercedes,-33.6667,-65.4667
1159309767,AR,Córdoba,Córdoba,-31.4167,-64.1833
1159309767,AR,Córdoba,Río Cuarto,-33.123,-64.3478
1159309769,AR,Catamarca,Catamarca,-28.4686,-65.7792
1159309771,AR,Jujuy,San Salvador de Jujuy,-24.1856,-65.2994
1159309775,AR,La Rioja,La Rioja,-29.4131,-66.8558
1159309777,AR,Salta,Salta,-24.7883,-65.4106
1159309779,AR,Santiago del Estero,Santiago del Estero,-27.7844,-64.2669
1159309779,AR,Santiago del Estero,La Banda,-27.7333,-64.25
1159309781,AR,Tucumán,San Miguel de Tucumán,-26.8167,-65.2167
1159309783,AR,Chaco,Resistencia,-27.4514,-58.9867
1159309785,AR,Formosa,Formosa,-26.1847,-58.1758
1159309787,AR,Corrientes,Corrientes,-27.4833,-58.8167
1159309789,AR,Entre Ríos,Paraná,-31.7444,-60.5175
1159309789,AR,Entre Ríos,Concordia,-31.3922,-58.0169
1159309789,AR,Entre Ríos,Gualeguaychú,-33.0078,-58.5111
1159309793,AR,Santa Fe,Rosario,-32.9575,-60.6394
1159309793,AR,Santa Fe,Santa Fe,-31.6333,-60.7
1159309795,AR,Misiones,Posadas,-27.3667,-55.8969
1159309797,VU,Tafea,Isangel,-19.5417,169.2817
1159309799,NC,Nord,Koné,-21.0667,164.8667
1159309801,BW,Ghanzi,Ghanzi,-21.7,21.65
1159309803,MG,Analanjirofo,Maroantsetra,-15.4333,49.7333
1159309805,VU,Shefa,Port-Vila,-17.7333,168.3167
1159309811,VU,Sanma,Luganville,-15.5126,167.1766
1159309813,VU,Penama,Saratamata,-15.2869,167.9906
1159309817,MG,Diana,Antsiranana,-12.2765,49.3115
1159309821,MG,Haute Matsiatra,Fianarantsoa,-21.4333,47.0833
1159309823,MG,Boeny,Mahajanga,-15.67,46.345
1159309825,MG,Androy,Bekily,-24.2162,45.3166
1159309829,SB,Rennell and Bellona,Tigoa,-11.5531,160.0647
1159309831,PG,Milne Bay,Alotau,-10.3,150.4167
1159309833,ID,Nusa Tenggara Timur,Maumere,-8.6189,122.2123
1159309835,MZ,Tete,Tete,-16.1579,33.5898
1159309837,MZ,Manica,Chimoio,-19.1167,33.45
1159309839,MZ,Cabo Delgado,Pemba,-12.9667,40.5167
1159309841,MZ,Niassa,Lichinga,-13.3,35.2456
1159309843,MZ,Nampula,Nampula,-15.1167,39.2667
1159309843,MZ,Nampula,Cidade de Nacala,-14.55,40.6833
1159309847,MZ,Gaza,Xai-Xai,-25.05,33.65
1159309851,BO,Cochabamba,Cochabamba,-17.3935,-66.157
1159309851,BO,Cochabamba,Sacaba,-17.4042,-66.0408
1159309851,BO,Cochabamba,Quillacollo,-17.3975,-66.2817
1159309853,BO,Chuquisaca,Sucre,-19.0431,-65.2592
1159309855,BO,El Beni,Trinidad,-14.8333,-64.9
1159309857,MW,Chitipa,Karonga,-9.9329,33.9333
1159309865,ID,Bali,Denpasar,-8.6667,115.2167
1159309865,ID,Bali,Singaraja,-8.1152,115.0944
1159309867,PG,Western,Kiunga,-6.1167,141.3
1159309869,ID,Jawa Timur,Surabaya,-7.2458,112.7378
1159309869,ID,Jawa Timur,Malang,-7.98,112.62
1159309869,ID,Jawa Timur,Jember,-8.1727,113.6873
1159309869,ID,Jawa Timur,Kediri,-7.8166,112.0119
1159309869,ID,Jawa Timur,Probolinggo,-7.75,113.2167
1159309869,ID,Jawa Timur,Batu,-7.8672,112.5239
1159309869,ID,Jawa Timur,Pasuruan,-7.6406,112.9065
1159309869,ID,Jawa Timur,Madiun,-7.63,111.5231
1159309869,ID,Jawa Timur,Banyuwangi,-8.195,114.3696
1159309869,ID,Jawa Timur,Blitar,-8.1,112.15
1159309869,ID,Jawa Timur,Mojokerto,-7.4722,112.4336
1159309873,ID,Jawa Tengah,Semarang,-6.9667,110.4167
1159309873,ID,Jawa Tengah,Cilacap,-7.7167,109.017
1159309873,ID,Jawa Tengah,Surakarta,-7.5667,110.8167
1159309873,ID,Jawa Tengah,Pekalongan,-6.8883,109.6753
1159309873,ID,Jawa Tengah,Tegal,-6.8667,109.1333
1159309873,ID,Jawa Tengah,Salatiga,-7.3095,110.4901
1159309873,ID,Jawa Tengah,Magelang,-7.4706,110.2178
1159309873,ID,Jawa Tengah,Pati,-6.7415,111.0347
1159309875,ID,Sulawesi Selatan,Makassar,-5.1331,119.4136
1159309875,ID,Sulawesi Selatan,Pinrang,-3.7857,119.6522
1159309875,ID,Sulawesi Selatan,Palopo,-3.0,120.2
1159309877,ID,Banten,Tangerang,-6.1783,106.6319
1159309877,ID,Banten,Serang,-6.12,106.1503
1159309877,ID,Banten,Cilegon,-6.0027,106.0112
1159309879,ID,Jawa Barat,Bandung,-6.95,107.5667
1159309879,ID,Jawa Barat,Bekasi,-6.2333,107.0
1159309879,ID,Jawa Barat,Depok,-6.394,106.8225
1159309879,ID,Jawa Barat,Bogor,-6.6,106.8
1159309879,ID,Jawa Barat,Tasikmalaya,-7.3333,108.2
1159309879,ID,Jawa Barat,Cimahi,-6.8833,107.5333
1159309879,ID,Jawa Barat,Sukabumi,-6.9197,106.9272
1159309879,ID,Jawa Barat,Cirebon,-6.7167,108.5667
1159309879,ID,Jawa Barat,Banjar,-7.3667,108.5333
1159309879,ID,Jawa Barat,Indramayu,-6.3356,108.319
1159309883,ID,Jakarta Raya,Jakarta,-6.2146,106.8451
1159309885,ID,Lampung,Bandar Lampung,-5.4294,105.2625
1159309885,ID,Lampung,Metro,-5.1167,105.3
1159309887,PG,Morobe,Lae,-6.7303,147.0008
1159309891,PG,East New Britain,Rabaul,-4.1981,152.1681
1159309895,ID,Bangka-Belitung,Pangkalpinang,-2.1,106.1
1159309897,BR,Goiás,Goiânia,-16.6806,-49.2564
1159309897,BR,Goiás,Anápolis,-16.3269,-48.9528
1159309897,BR,Goiás,Rio Verde,-17.7978,-50.9278
1159309897,BR,Goiás,Luziânia,-16.2528,-47.95
1159309897,BR,Goiás,Formosa,-15.5369,-47.3339
1159309897,BR,Goiás,Catalão,-18.17,-47.9419
1159309897,BR,Goiás,Itumbiara,-18.42,-49.2178
1159309897,BR,Goiás,Trindade,-16.6489,-49.4889
1159309901,BR,Pernambuco,Recife,-8.0539,-34.8808
1159309901,BR,Pernambuco,Jaboatão,-8.1803,-35.0014
1159309901,BR,Pernambuco,Olinda,-8.0089,-34.855
1159309901,BR,Pernambuco,Caruaru,-8.2828,-35.9758
1159309901,BR,Pernambuco,Petrolina,-9.3928,-40.5078
1159309901,BR,Pernambuco,Paulista,-7.9408,-34.8728
1159309901,BR,Pernambuco,Carpina,-7.8508,-35.2547
1159309901,BR,Pernambuco,Camarajibe,-8.0219,-34.9808
1159309901,BR,Pernambuco,Santo Agostinho,-8.29,-35.03
1159309901,BR,Pernambuco,Garanhuns,-8.8903,-36.4928
1159309901,BR,Pernambuco,Vitória de Santo Antão,-8.1264,-35.3075
1159309901,BR,Pernambuco,Igarassu,-7.8339,-34.9058
1159309901,BR,Pernambuco,São Lourenço da Mata,-8.0019,-35.0178
1159309903,EC,Guayas,Eloy Alfaro,-2.1733,-79.8311
1159309903,EC,Guayas,Milagro,-2.1347,-79.5872
1159309905,PG,Enga,Wabag,-5.4833,143.7
1159309907,PG,Sandaun,Vanimo,-2.6817,141.3014
1159309909,PG,Chimbu,Kundiawa,-6.023,144.96
1159309911,PG,Eastern Highlands,Goroka,-6.0833,145.3833
1159309913,PG,Gulf,Kerema,-7.927,145.838
1159309915,PG,Southern Highlands,Mendi,-6.1478,143.6572
1159309919,PG,Western Highlands,Mount Hagen,-5.8667,144.2167
1159309921,PG,Central,Amau,-10.0426,148.565
1159309923,PG,National Capital District,Port Moresby,-9.4789,147.1494
1159309925,PG,Manus,Lorengau,-2.0208,147.2667
1159309927,KE,Coast,Malindi,-3.21,40.1
1159309929,ID,Kalimantan Barat,Pontianak,-0.0206,109.3414
1159309929,ID,Kalimantan Barat,Singkawang,0.9,108.9833
1159309933,EC,Galápagos,Santa Cruz,-0.5333,-90.35
1159309937,PE,Lambayeque,Chiclayo,-6.763,-79.8366
1159309939,PE,Tumbes,Tumbes,-3.5667,-80.45
1159309941,PE,Apurímac,Andahuaylas,-13.6575,-73.3833
1159309943,PE,Arequipa,Arequipa,-16.3988,-71.5369
1159309945,PE,Cusco,Cusco,-13.5183,-71.9781
1159309947,PE,Madre de Dios,Puerto Maldonado,-12.6,-69.1833
1159309949,PE,Puno,Juliaca,-15.4908,-70.1269
1159309949,PE,Puno,Puno,-15.8433,-70.0236
1159309951,PE,Moquegua,Moquegua,-17.2,-70.9333
1159309955,PE,Tacna,Tacna,-18.0556,-70.2483
1159309957,PE,Áncash,Chimbote,-9.0745,-78.5936
1159309957,PE,Áncash,Huaraz,-9.5333,-77.5333
1159309959,PE,Cajamarca,Cajamarca,-7.1644,-78.5106
1159309961,EC,Esmeraldas,Esmeraldas,0.95,-79.6667
1159309963,EC,Carchi,Tulcán,0.8117,-77.7186
1159309965,EC,Imbabura,Ibarra,0.3628,-78.13
1159309967,EC,Sucumbios,Nueva Loja,0.0844,-76.8911
1159309969,EC,Azuay,Cuenca,-2.8974,-79.0045
1159309973,EC,El Oro,Machala,-3.2667,-79.9667
1159309975,EC,Loja,Loja,-3.9906,-79.205
1159309977,EC,Zamora Chinchipe,Zamora,-4.0692,-78.9567
1159309979,EC,Bolivar,Guaranda,-1.6056,-79.0031
1159309981,EC,Cañar,La Troncal,-2.4278,-79.3389
1159309983,EC,Cotopaxi,Latacunga,-0.9333,-78.6167
1159309985,EC,Los Rios,Quevedo,-1.0333,-79.45
1159309987,EC,Manabi,Manta,-0.95,-80.7162
1159309987,EC,Manabi,Portoviejo,-1.0544,-80.4544
1159309991,EC,Chimborazo,Riobamba,-1.6743,-78.6483
1159309993,EC,Morona Santiago,Macas,-2.3,-78.1167
1159309995,EC,Orellana,Puerto Francisco de Orellana,-0.4625,-76.9842
1159309997,EC,Pichincha,Quito,-0.2186,-78.5097
1159309999,EC,Pastaza,Puyo,-1.483,-77.987
1159310001,EC,Napo,Ambato,-1.2417,-78.6197
1159310003,EC,Tungurahua,Tena,-0.989,-77.8159
1159310005,ID,Sulawesi Barat,Majene,-3.5336,118.966
1159310009,ID,Kalimantan Timur,Samarinda,-0.5022,117.1536
1159310009,ID,Kalimantan Timur,Balikpapan,-1.1489,116.9031
1159310009,ID,Kalimantan Timur,Tarakan,3.3,117.6333
1159310009,ID,Kalimantan Timur,Bontang,0.1333,117.5
1159310011,GQ,Centro Sur,Evinayong,1.45,10.5667
1159310013,GQ,Kié-Ntem,Ebebiyín,2.15,11.3167
1159310015,GQ,Litoral,Bata,1.865,9.77
1159310017,GQ,Wele-Nzás,Añisoc,1.8656,10.7689
1159310019,CO,Nariño,Pasto,1.2136,-77.2811
1159310019,CO,Nariño,Tumaco,1.8067,-78.7647
1159310019,CO,Nariño,Ipiales,0.8289,-77.6406
1159310021,MY,Sarawak,Kuching,1.5397,110.3542
1159310021,MY,Sarawak,Sibu,2.3,111.8167
1159310021,MY,Sarawak,Miri,4.4147,114.0089
1159310021,MY,Sarawak,Bintulu,3.17,113.03
1159310023,MY,Johor,Johor Bahru,1.4556,103.7611
1159310023,MY,Johor,Muar,2.05,102.56
1159310023,MY,Johor,Kluang,2.0336,103.3194
1159310023,MY,Johor,Batu Pahat,1.85,102.93
1159310027,MY,Selangor,Klang,3.0333,101.45
1159310027,MY,Selangor,Petaling Jaya,3.1073,101.6067
1159310027,MY,Selangor,Shah Alam,3.0833,101.5333
1159310029,GQ,Bioko Norte,Malabo,3.75,8.7833
1159310031,GQ,Bioko Sur,Luba,3.45,8.55
1159310033,MY,Sabah,Sandakan,5.8464,118.02443333333335
1159310033,MY,Sabah,Lahad Datu,5.03,118.34
1159310033,MY,Sabah,Tawau,4.2981,117.8831
1159310035,CO,Chocó,Quibdó,5.6923,-76.6582
1159310037,KE,Central,Thika,-1.0396,37.09
1159310039,KE,Nairobi,Nairobi,-1.2864,36.8172
1159310041,KE,Nyanza,Kisumu,-0.1,34.75
1159310041,KE,Nyanza,Kisii,-0.6698,34.7675
1159310045,BN,Temburong,Bangar,4.7086,115.0739
1159310047,BN,Belait,Kuala Belait,4.5828,114.1918
1159310049,BN,Brunei and Muara,Bandar Seri Begawan,4.9167,114.9167
1159310051,BN,Tutong,Tutong,4.8067,114.6592
1159310053,BR,Acre,Rio Branco,-9.9781,-67.8117
1159310055,CD,Équateur,Mbandaka,0.0486,18.2603
1159310055,CD,Équateur,Gemena,3.25,19.7667
1159310055,CD,Équateur,Bumba,2.19,22.46
1159310057,CD,Orientale,Kisangani,0.5153,25.1911
1159310057,CD,Orientale,Isiro,2.7833,27.6167
1159310057,CD,Orientale,Wamba,2.1404,27.99
1159310059,MY,Pulau Pinang,Butterworth,5.4032543478260857,100.38032826086958
1159310059,MY,Pulau Pinang,George Town,5.4145,100.3292
1159310059,MY,Pulau Pinang,Bukit Mertajam,5.3631,100.4667
1159310063,ID,Sumatera Selatan,Palembang,-2.9833,104.7644
1159310063,ID,Sumatera Selatan,Lubuklinggau,-3.2967,102.8617
1159310063,ID,Sumatera Selatan,Prabumulih,-3.4328,104.2356
1159310063,ID,Sumatera Selatan,Pageralam,-4.0217,103.2522
1159310065,MY,Kedah,Sungai Petani,5.65,100.48
1159310065,MY,Kedah,Alor Setar,6.1167,100.3667
1159310067,MY,Perlis,Kangar,6.4414,100.1986
1159310069,MY,Kelantan,Kota Bharu,6.1333,102.25
1159310073,MY,Negeri Sembilan,Seremban,2.7297,101.9381
1159310075,MY,Pahang,Kuantan,3.8167,103.3333
1159310077,MY,Trengganu,Kuala Terengganu,5.3303,103.1408
1159310081,PA,Veraguas,Santiago,8.1004,-80.9833
1159310083,SL,Southern,Bo,7.9564,-11.74
1159310085,PA,Panama,Panama City,9.0,-79.5
1159310085,PA,Panama,San Miguelito,9.05,-79.5
1159310087,LR,River Gee,Fish Town,5.1974,-7.8758
1159310089,LR,Gbapolu,Bopolu,7.0667,-10.4875
1159310091,PA,Darién,La Palma,8.3982,-78.1402
1159310093,PA,Kuna Yala,Gaigirgordub,9.55,-78.9667
1159310095,PA,Chiriquí,David,8.4333,-82.4333
1159310099,PA,Coclé,Penonomé,8.51,-80.36
1159310103,PA,Herrera,Chitré,7.9667,-80.4333
1159310105,PA,Los Santos,Las Tablas,7.7667,-80.2833
1159310107,SL,Western,Freetown,8.4833,-13.2331
1159310109,SL,Northern,Makeni,8.8817,-12.0442
1159310111,CF,Ombella-M'Poko,Bossembele,5.267,17.65
1159310113,CR,Cartago,Cartago,9.8667,-83.9167
1159310117,CR,Heredia,Heredia,9.9985,-84.1169
1159310119,CR,Limón,Puerto Limón,10.0022,-83.084
1159310121,CR,San José,San José,9.9333,-84.0833
1159310123,CR,Alajuela,Alajuela,10.0167,-84.2167
1159310125,CR,Guanacaste,Liberia,10.6338,-85.4333
1159310127,CO,Caldas,Manizales,5.0661,-75.4847
1159310129,CO,Cundinamarca,Soacha,4.5781,-74.2144
1159310129,CO,Cundinamarca,Zipaquirá,5.0247,-74.0014
1159310129,CO,Cundinamarca,Fusagasugá,4.3372,-74.3644
1159310129,CO,Cundinamarca,Girardot,4.3036,-74.8039
1159310129,CO,Cundinamarca,Facatativá,4.8147,-74.3553
1159310129,CO,Cundinamarca,Madrid,4.7306,-74.2639
1159310131,CO,Bogota,Bogotá,4.6126,-74.0705
1159310135,CO,Quindío,Armenia,4.5389,-75.6725
1159310137,CO,Risaralda,Pereira,4.8143,-75.6946
1159310137,CO,Risaralda,Dosquebradas,4.8361,-75.6761
1159310139,CO,Tolima,Ibagué,4.4378,-75.2006
1159310141,CO,Caquetá,Florencia,1.6142,-75.6117
1159310143,CO,Huila,Palermo,2.8883,-75.4339
1159310143,CO,Huila,Neiva,2.9275,-75.2875
1159310143,CO,Huila,Pitalito,1.8539,-76.0514
1159310145,CO,Putumayo,Puerto Asís,0.5006,-76.4989
1159310147,CO,Valle del Cauca,Cali,3.44,-76.5197
1159310147,CO,Valle del Cauca,Buenaventura,3.8772,-77.0267
1159310147,CO,Valle del Cauca,Tuluá,4.0847,-76.1986
1159310147,CO,Valle del Cauca,Cartago,4.75,-75.91
1159310147,CO,Valle del Cauca,Guadalajara de Buga,3.9036,-76.2986
1159310149,CO,Atlántico,Barranquilla,10.9639,-74.7964
1159310149,CO,Atlántico,Soledad,10.92,-74.77
1159310153,CO,Cesar,Valledupar,10.4603,-73.2597
1159310153,CO,Cesar,Aguachica,8.3067,-73.6153
1159310155,CO,Magdalena,Santa Marta,11.2361,-74.2017
1159310155,CO,Magdalena,Ciénaga,11.0104,-74.25
1159310157,CO,Sucre,Sincelejo,9.2994,-75.3958
1159310159,CO,Arauca,Arauca,7.0903,-70.7617
1159310161,CO,Norte de Santander,Cúcuta,7.9075,-72.5047
1159310163,CO,Casanare,Yopal,5.3306,-72.3906
1159310165,CO,Guaviare,El Retorno,2.3306,-72.6278
1159310167,CO,Guainía,Inírida,3.8708,-67.9211
1159310171,CO,Meta,Villavicencio,4.1425,-73.6294
1159310173,CO,Vaupés,Mitú,1.2503,-70.235
1159310175,CO,Vichada,Cumaribo,4.4461,-69.7956
1159310177,CO,Amazonas,Puerto Nariño,-3.7703,-70.3831
1159310179,CO,Antioquia,Medellín,6.2447,-75.5748
1159310179,CO,Antioquia,Bello,6.3319,-75.5581
1159310179,CO,Antioquia,Itagüí,6.1726,-75.6096
1159310179,CO,Antioquia,Envigado,6.1719,-75.5803
1159310179,CO,Antioquia,Turbo,8.0931,-76.7283
1159310181,CO,Boyacá,Tunja,5.5403,-73.3614
1159310181,CO,Boyacá,Sogamoso,5.7158,-72.9333
1159310181,CO,Boyacá,Duitama,5.8219,-73.0297
1159310183,CO,Córdoba,Montería,8.76,-75.8856
1159310185,CO,Santander,Bucaramanga,7.1186,-73.1161
1159310185,CO,Santander,Floridablanca,7.0697,-73.0978
1159310185,CO,Santander,Barrancabermeja,7.0675,-73.8472
1159310185,CO,Santander,Girón,7.0731,-73.1681
1159310185,CO,Santander,Piedecuesta,6.9886,-73.0503
1159310189,CO,La Guajira,Ríohacha,11.5442,-72.9069
1159310189,CO,La Guajira,Maicao,11.3778,-72.2414
1159310189,CO,La Guajira,Uribia,11.7139,-72.2658
1159310193,GW,Bissau,Bissau,11.8592,-15.5956
1159310195,DJ,Ali Sabieh,Ali Sabieh,11.1558,42.7125
1159310197,DJ,Djibouti,Djibouti,11.595,43.1481
1159310199,DJ,Arta,Arta,11.5264,42.8519
1159310201,DJ,Dikhil,Dikhil,11.1086,42.3667
1159310203,DJ,Obock,Obock,11.9667,43.2833
1159310207,DJ,Tadjourah,Tadjourah,11.7833,42.8833
1159310209,CM,Extrême-Nord,Maroua,10.5823,14.3275
1159310209,CM,Extrême-Nord,Kousséri,12.0833,15.0333
1159310211,CM,Littoral,Douala,4.05,9.7
1159310211,CM,Littoral,Edéa,3.8,10.1333
1159310211,CM,Littoral,Nkongsamba,4.95,9.9167
1159310213,CM,Nord-Ouest,Bamenda,5.9333,10.1667
1159310213,CM,Nord-Ouest,Kumbo,6.2,10.66
1159310215,CM,Centre,Yaoundé,3.8578,11.5181
1159310217,SV,Ahuachapán,Ahuachapán,13.9214,-89.845
1159310219,SV,Chalatenango,Chalatenango,14.0413,-88.9397
1159310221,SV,Santa Ana,Santa Ana,13.9833,-89.5333
1159310225,ER,Debub,Massawa,15.6097,39.45
1159310227,SN,Dakar,Pikine,14.75,-17.4
1159310227,SN,Dakar,Dakar,14.7319,-17.4572
1159310227,SN,Dakar,Rufisque,14.7167,-17.2667
1159310229,SN,Diourbel,Diourbel,14.655,-16.2314
1159310231,SN,Fatick,Fatick,14.3167,-16.4167
1159310233,SN,Kaolack,Kaolack,14.152,-16.0726
1159310235,SN,Louga,Louga,15.6167,-16.2167
1159310237,SN,Matam,Kobilo,16.15,-13.5
1159310239,SN,Thiès,Thiès,14.7833,-16.9167
1159310243,BZ,Belize,Belize City,17.4986,-88.1886
1159310245,ER,Gash Barka,Ak’ordat,15.55,37.8833
1159310247,ER,Anseba,Asmara,15.3333,38.9167
1159310249,ER,Semenawi Keyih Bahri,Keren,15.6804,38.45
1159310251,ER,Maekel,Mendefera,14.8833,38.8167
1159310253,ER,Debubawi Keyih Bahri,Bēylul,13.2639,42.3347
1159310255,HT,Sud,Les Cayes,18.2004,-73.75
1159310257,BZ,Cayo,Belmopan,17.25,-88.7675
1159310261,BZ,Corozal,Corozal,18.4,-88.4
1159310263,BZ,Orange Walk,Orange Walk,18.075,-88.5583
1159310265,JM,Clarendon,May Pen,17.95,-77.25
1159310269,JM,Manchester,Mandeville,18.0417,-77.5072
1159310271,JM,Saint Elizabeth,Black River,18.0264,-77.8487
1159310273,JM,Saint James,Montego Bay,18.4667,-77.9167
1159310279,JM,Westmoreland,Savanna-la-Mar,18.2167,-78.1333
1159310281,JM,Kingston,Kingston,17.9714,-76.7931
1159310283,JM,Portland,Port Antonio,18.1667,-76.45
1159310285,JM,Saint Ann,Saint Ann’s Bay,18.435,-77.2017
1159310287,JM,Saint Catherine,Portmore,17.9667,-76.8667
1159310287,JM,Saint Catherine,Spanish Town,17.9961,-76.9547
1159310289,JM,Saint Mary,Port Maria,18.3703,-76.8903
1159310291,JM,Saint Andrew,Half Way Tree,18.0106,-76.7975
1159310293,JM,Saint Thomas,Port Morant,17.891,-76.329
1159310297,HT,Grand'Anse,Jérémie,18.6339,-74.1184
1159310299,HT,Ouest,Port-au-Prince,18.5425,-72.3386
1159310299,HT,Ouest,Carrefour,18.5333,-72.4
1159310299,HT,Ouest,Pétion-Ville,18.5098,-72.2856
1159310299,HT,Ouest,Delmas,18.55,-72.3
1159310301,DO,Santiago,Santiago,19.45,-70.7
1159310303,DO,Santiago Rodríguez,Sabaneta,19.4833,-71.35
1159310305,DO,Valverde,Mao,19.5667,-71.0833
1159310307,DO,San Juan,San Juan,18.81,-71.23
1159310309,DO,Santo Domingo,Santo Domingo Este,18.4855,-69.8734
1159310311,DO,Sánchez Ramírez,Cotuí,19.06,-70.15
1159310315,DO,San Pedro de Macorís,San Pedro de Macorís,18.4572,-69.3061
1159310317,HT,L'Artibonite,Gonaïves,19.4456,-72.6883
1159310317,HT,L'Artibonite,Saint-Marc,19.1167,-72.7
1159310319,HT,Centre,Belladère,18.85,-71.7833
1159310321,HT,Nord-Est,Fort Liberté,19.6656,-71.8448
1159310325,HT,Sud-Est,Jacmel,18.235,-72.537
1159310327,HT,Nippes,Miragoâne,18.4411,-73.0883
1159310333,CU,Camagüey,Camagüey,21.3786,-77.9186
1159310333,CU,Camagüey,Carlos Manuel de Céspedes,21.5767,-78.2775
1159310335,CN,Guangdong,Guangzhou,23.1288,113.259
1159310335,CN,Guangdong,Shenzhen,22.535,114.054
1159310335,CN,Guangdong,Dongguan,23.0475,113.7493
1159310335,CN,Guangdong,Foshan,23.0292,113.1056
1159310335,CN,Guangdong,Zhanjiang,21.2815,110.3427
1159310335,CN,Guangdong,Maoming,21.6618,110.9178
1159310335,CN,Guangdong,Jieyang,23.5533,116.3649
1159310335,CN,Guangdong,Shantou,23.3735,116.6941
1159310335,CN,Guangdong,Huizhou,23.1115,114.4152
1159310335,CN,Guangdong,Jiangmen,22.5833,113.0833
1159310335,CN,Guangdong,Meizhou,24.2998,116.1191
1159310335,CN,Guangdong,Zhaoqing,23.05,112.4667
1159310335,CN,Guangdong,Qingyuan,23.6842,113.0507
1159310335,CN,Guangdong,Zhongshan,22.5333,113.35
1159310335,CN,Guangdong,Heyuan,23.7503,114.6923
1159310335,CN,Guangdong,Shaoguan,24.8011,113.5927
1159310335,CN,Guangdong,Chaozhou,23.67,116.63
1159310335,CN,Guangdong,Yangjiang,21.8556,111.9627
1159310335,CN,Guangdong,Yunfu,22.9242,112.0353
1159310335,CN,Guangdong,Puning,23.2993,116.1586
1159310335,CN,Guangdong,Zhuhai,22.2769,113.5678
1159310335,CN,Guangdong,Lianjiang,21.6146,110.2794
1159310335,CN,Guangdong,Leizhou,20.9147,110.0806
1159310335,CN,Guangdong,Gaozhou,21.9135,110.8481
1159310335,CN,Guangdong,Huazhou,21.654,110.6294
1159310335,CN,Guangdong,Xinyi,22.3559,110.9369
1159310335,CN,Guangdong,Xingcheng,24.1681,115.6669
1159310335,CN,Guangdong,Yingcheng,24.1878,113.4042
1159310335,CN,Guangdong,Luocheng,22.7645,111.5745
1159310335,CN,Guangdong,Wuchuan,21.4283,110.7749
1159310335,CN,Guangdong,Taishan,22.2486,112.785
1159310335,CN,Guangdong,Yangchun,22.1717,111.7846
1159310335,CN,Guangdong,Changsha,22.3762,112.6877
1159310335,CN,Guangdong,Sihui,23.3448,112.6956
1159310335,CN,Guangdong,Heshan,22.7697,112.9578
1159310335,CN,Guangdong,Encheng,22.1879,112.3131
1159310335,CN,Guangdong,Lecheng,25.1307,113.3472
1159310335,CN,Guangdong,Lianzhou,24.7868,112.3735
1159310335,CN,Guangdong,Datang,22.9476,113.9326
1159310335,CN,Guangdong,Bijiao,22.9311,113.2018
1159310335,CN,Guangdong,Longjin,22.8711,113.0684
